name,pref,city,district,latitude,longitude,relation_point_default
伊敷郵便局,鹿児島県,鹿児島市,伊敷１丁目,31.617511,130.527533,54409.5633630319
鹿児島大平田郵便局,鹿児島県,鹿児島市,伊敷５丁目,31.626364,130.525809,48379.9473163193
鹿児島伊敷台郵便局,鹿児島県,鹿児島市,伊敷台２丁目,31.625707,130.535316,48379.9473163193
鹿児島宇宿三郵便局,鹿児島県,鹿児島市,宇宿３丁目,31.543964,130.538366,64011.8725953066
鹿児島永吉郵便局,鹿児島県,鹿児島市,永吉１丁目,31.602652,130.535197,68127.4455813257
卸本町簡易郵便局,鹿児島県,鹿児島市,卸本町,31.515772,130.521785,44837.0827496698
鹿児島下伊敷郵便局,鹿児島県,鹿児島市,下伊敷１丁目,31.611012,130.533975,62932.6218700237
鹿児島日当平郵便局,鹿児島県,鹿児島市,下伊敷３丁目,31.620206,130.538502,58123.082723928
鹿児島下荒田一郵便局,鹿児島県,鹿児島市,下荒田１丁目,31.576711,130.555474,84173.3197176165
鹿児島下荒田四郵便局,鹿児島県,鹿児島市,下荒田４丁目,31.569462,130.556613,77589.5908707623
鹿児島下田郵便局,鹿児島県,鹿児島市,下田町,31.644647,130.547076,34676.9680924593
錫山簡易郵便局,鹿児島県,鹿児島市,下福元町,31.49536066595154,130.4510682370089,8778.03045082108
鹿児島加治屋町郵便局,鹿児島県,鹿児島市,西千石町,31.587487,130.549086,90874.9647112897
花尾簡易郵便局,鹿児島県,鹿児島市,花尾町,31.704819,130.493396,7031.53709598536
鹿児島花野簡易郵便局,鹿児島県,鹿児島市,花野光ヶ丘１丁目,31.650731,130.528501,26595.9534650488
鹿児島鴨池郵便局,鹿児島県,鹿児島市,鴨池１丁目,31.564351,130.549558,88114.683939327
鹿児島県庁内郵便局,鹿児島県,鹿児島市,与次郎２丁目,31.560352,130.557891,77766.4237639618
一倉簡易郵便局,鹿児島県,鹿児島市,喜入一倉町,31.352078,130.523729,3600.6223753711
瀬々串郵便局,鹿児島県,鹿児島市,喜入瀬々串町,31.421823,130.522344,5224.18077450148
生見郵便局,鹿児島県,指宿市,小牧,31.305649,130.580653,3353.28818058216
前之浜郵便局,鹿児島県,鹿児島市,喜入前之浜町,31.346551,130.555559,3516.95826916067
中名簡易郵便局,鹿児島県,鹿児島市,喜入中名町,31.391939,130.534345,5119.76114467824
喜入郵便局,鹿児島県,鹿児島市,喜入町,31.37341,130.542149,5019.29411669199
鹿児島吉野郵便局,鹿児島県,鹿児島市,吉野町,31.63987,130.568713,41628.4570936189
鹿児島菖蒲谷郵便局,鹿児島県,鹿児島市,吉野町,31.651981,130.583553,27706.765838975
鹿児島七社簡易郵便局,鹿児島県,鹿児島市,吉野町,31.632674,130.589022,20494.1320533864
鹿児島玉里団地郵便局,鹿児島県,鹿児島市,玉里団地２丁目,31.618179,130.546279,58123.082723928
鹿児島錦江台簡易郵便局,鹿児島県,鹿児島市,錦江台１丁目,31.503634,130.49651,31820.5356872542
郡山郵便局,鹿児島県,鹿児島市,油須木町,31.679137,130.47523,10377.7087702211
犬迫簡易郵便局,鹿児島県,鹿児島市,犬迫町,31.63001,130.49845,18034.8711620573
鹿児島原良郵便局,鹿児島県,鹿児島市,原良５丁目,31.597981146533748,130.5294208696224,76558.5719926281
五ヶ別府簡易郵便局,鹿児島県,鹿児島市,五ヶ別府町,31.571743,130.47588,37077.8898743164
鹿児島甲突郵便局,鹿児島県,鹿児島市,甲突町,31.581183,130.560168,84173.3197176165
鹿児島皇徳寺郵便局,鹿児島県,鹿児島市,皇徳寺台１丁目,31.561126,130.495219,44580.206589147
鹿児島荒田一郵便局,鹿児島県,鹿児島市,荒田１丁目,31.575072,130.547892,94113.1378950585
鹿児島荒田二郵便局,鹿児島県,鹿児島市,下荒田３丁目,31.5711,130.552058,77589.5908707623
鹿児島坂元郵便局,鹿児島県,鹿児島市,坂元町,31.620262,130.553473,51994.2110303052
坂之上郵便局,鹿児島県,鹿児島市,坂之上５丁目,31.501546225380967,130.50816226075517,41835.4861358234
鹿児島下福元郵便局,鹿児島県,鹿児島市,坂之上６丁目,31.496941360271435,130.50127247816076,33166.973513606
向原簡易郵便局,鹿児島県,鹿児島市,坂之上７丁目,31.490871866267483,130.4991671160374,24168.8233330418
鹿児島桜ヶ丘郵便局,鹿児島県,鹿児島市,桜ヶ丘５丁目,31.549602,130.518812,74612.5608973493
鹿児島大学医学部内簡易郵便局,鹿児島県,鹿児島市,桜ヶ丘８丁目,31.547352,130.527644,75695.4953934071
二俣郵便局,鹿児島県,鹿児島市,桜島二俣町,31.625604,130.658931,6973.29678106226
西桜島郵便局,鹿児島県,鹿児島市,桜島武町,31.616176,130.620397,11077.3107442334
鹿児島三和郵便局,鹿児島県,鹿児島市,三和町,31.551241,130.554753,57232.6830292455
鹿児島東郵便局,鹿児島県,鹿児島市,中町,31.594625,130.555474,74155.2562125184
鹿児島山之口郵便局,鹿児島県,鹿児島市,山之口町,31.587459,130.553835,77447.4180844643
鹿児島紫原一郵便局,鹿児島県,鹿児島市,紫原１丁目,31.55799,130.538671,80065.1738698694
鹿児島紫原五郵便局,鹿児島県,鹿児島市,紫原６丁目,31.561295,130.530866,86458.9953992591
鹿児島自由ヶ丘簡易郵便局,鹿児島県,鹿児島市,自由ヶ丘１丁目,31.540631,130.511118,58220.3279087524
鹿児島春山簡易郵便局,鹿児島県,鹿児島市,春山町,31.581314093286437,130.45492191428772,18206.2540404786
鹿児島春日郵便局,鹿児島県,鹿児島市,春日町,31.605402,130.5665,43922.6125966971
鹿児島西郵便局,鹿児島県,鹿児島市,小山田町,31.654424,130.497337,13456.1170752594
鹿児島小山田簡易郵便局,鹿児島県,鹿児島市,小山田町,31.662118,130.486393,11192.5964476468
鹿児島笹貫郵便局,鹿児島県,鹿児島市,小松原１丁目,31.537437,130.532505,60134.3962763415
鹿児島清見郵便局,鹿児島県,鹿児島市,小松原２丁目,31.530215,130.524423,61552.7638080841
鹿児島小川郵便局,鹿児島県,鹿児島市,小川町,31.600458,130.56114,63242.9896006233
小野簡易郵便局,鹿児島県,鹿児島市,小野２丁目,31.61279,130.524753,48336.7563097792
鹿児島松原郵便局,鹿児島県,鹿児島市,住吉町,31.587932,130.562196,77447.4180844643
上伊集院郵便局,鹿児島県,鹿児島市,松陽台町,31.59265,130.460556,18119.41968405
松元駅前郵便局,鹿児島県,鹿児島市,福山町,31.605302,130.43551,11566.2405050396
鹿児島上之園郵便局,鹿児島県,鹿児島市,上之園町,31.581543,130.548614,94113.1378950585
谷山上福元郵便局,鹿児島県,鹿児島市,上福元町,31.527243,130.511341,55471.8680699886
城山簡易郵便局,鹿児島県,鹿児島市,城山１丁目,31.605985,130.545168,72488.8498230669
鹿児島城西郵便局,鹿児島県,鹿児島市,城西３丁目,31.595485,130.537642,85160.7182064812
鹿児島真砂本町郵便局,鹿児島県,鹿児島市,真砂本町,31.557629,130.553586,57232.6830292455
鹿児島星ヶ峯郵便局,鹿児島県,鹿児島市,星ヶ峯４丁目,31.576905,130.492841,41565.7225789374
鹿児島西伊敷三郵便局,鹿児島県,鹿児島市,西伊敷２丁目,31.637538,130.529141,39039.8071518249
岡之原簡易郵便局,鹿児島県,鹿児島市,西伊敷６丁目,31.645649,130.534779,31374.2907267722
吉田麓郵便局,鹿児島県,鹿児島市,東佐多町,31.736261,130.571435,8089.67586108942
鹿児島西田郵便局,鹿児島県,鹿児島市,西田２丁目,31.588791,130.53942,90874.9647112897
鹿児島西陵郵便局,鹿児島県,鹿児島市,西陵１丁目,31.580792,130.513617,72581.6798178519
鹿児島西郷団地郵便局,鹿児島県,鹿児島市,西陵６丁目,31.580543,130.505284,55843.6531126051
石谷簡易郵便局,鹿児島県,鹿児島市,石谷町,31.615546,130.456,14643.7087696347
千年団地簡易郵便局,鹿児島県,鹿児島市,千年１丁目,31.638418905829596,130.5225734928299,30134.7926893862
鹿児島川上郵便局,鹿児島県,鹿児島市,川上町,31.656612879606122,130.56853294263922,31702.7317048896
鹿児島草牟田郵便局,鹿児島県,鹿児島市,草牟田１丁目,31.59968,130.54053,85160.7182064812
鹿児島大明丘郵便局,鹿児島県,鹿児島市,大明丘２丁目,31.630178,130.566971,41084.4109984152
鹿児島大竜郵便局,鹿児島県,鹿児島市,大竜町,31.604958,130.560973,63242.9896006233
鹿児島谷山港簡易郵便局,鹿児島県,鹿児島市,谷山港１丁目,31.497413,130.524174,29303.2253787219
鹿児島南郵便局,鹿児島県,鹿児島市,谷山中央１丁目,31.522049,130.519202,50730.416650425
鹿児島慈眼寺郵便局,鹿児島県,鹿児島市,谷山中央５丁目,31.517494,130.511619,52505.1732621802
鹿児島池之上郵便局,鹿児島県,鹿児島市,池之上町,31.608402,130.561639,62069.4726179819
鹿児島中央郵便局,鹿児島県,鹿児島市,西田２丁目,31.585486,130.542865,90874.9647112897
鹿児島中洲郵便局,鹿児島県,鹿児島市,上之園町,31.579848,130.543031,94113.1378950585
鹿児島山田郵便局,鹿児島県,鹿児島市,中山２丁目,31.550796,130.503952,59823.3107349427
大園簡易郵便局,鹿児島県,鹿児島市,清和２丁目,31.540436,130.497898,39957.6729351324
照国神社前通り郵便局,鹿児島県,鹿児島市,中町,31.592416754566887,130.5555959413234,74155.2562125184
直木簡易郵便局,鹿児島県,鹿児島市,直木町,31.584316,130.423594,9452.83701418173
鹿児島田上町郵便局,鹿児島県,鹿児島市,田上３丁目,31.576543,130.527255,86551.777823209
大峰橋簡易郵便局,鹿児島県,鹿児島市,武岡３丁目,31.587236,130.514116,67948.7834406359
広木簡易郵便局,鹿児島県,鹿児島市,田上台２丁目,31.56921,130.521755,72911.5944053029
鹿児島唐湊郵便局,鹿児島県,鹿児島市,唐湊１丁目,31.571516,130.538976,101147.489417439
東開町簡易郵便局,鹿児島県,鹿児島市,南栄２丁目,31.525031,130.531392,52029.0259007814
東桜島郵便局,鹿児島県,鹿児島市,東桜島町,31.554991,130.634191,7774.65178809463
鹿児島東千石郵便局,鹿児島県,鹿児島市,東千石町,31.591737,130.551919,74155.2562125184
新入簡易郵便局,鹿児島県,鹿児島市,東谷山４丁目,31.533488,130.523068,70732.633005021
東俣郵便局,鹿児島県,鹿児島市,東俣町,31.682525,130.500988,10962.2108351138
鹿児島南郡元郵便局,鹿児島県,鹿児島市,南郡元町,31.556185,130.544892,80065.1738698694
鹿児島南林寺郵便局,鹿児島県,鹿児島市,松原町,31.585154,130.557835,77447.4180844643
鹿児島武郵便局,鹿児島県,鹿児島市,武１丁目,31.580765,130.538782,94113.1378950585
鹿児島武岡団地郵便局,鹿児島県,鹿児島市,武岡２丁目,31.591625,130.516227,67948.7834406359
武岡ハイランド郵便局,鹿児島県,鹿児島市,武岡５丁目,31.597208,130.509811,44722.6326847697
浜平川簡易郵便局,鹿児島県,鹿児島市,七ッ島２丁目,31.456531560153373,130.5134650586766,7697.33368843959
平川郵便局,鹿児島県,鹿児島市,下福元町,31.47672584397627,130.5029537819365,20170.1669970374
大原簡易郵便局,鹿児島県,鹿児島市,宮之浦町,31.680653,130.556271,15278.6636172047
吉田郵便局,鹿児島県,鹿児島市,本城町,31.700419,130.556676,9514.30790100584
吉田牟礼岡簡易郵便局,鹿児島県,鹿児島市,牟礼岡２丁目,31.674508,130.585496,16202.3173520513
鹿児島明和郵便局,鹿児島県,鹿児島市,明和１丁目,31.602388,130.523285,55047.0352497383
里岳簡易郵便局,鹿児島県,鹿児島市,有屋田町,31.669295713512277,130.45151911603736,8987.22349867396
鹿児島緑ヶ丘団地郵便局,鹿児島県,鹿児島市,緑ヶ丘町,31.658119,130.546333,26481.1208198966
和田簡易郵便局,鹿児島県,鹿児島市,和田３丁目,31.509606,130.512758,44837.0827496698
鹿屋旭原郵便局,鹿児島県,鹿屋市,旭原町,31.404848,130.877816,15131.0926523013
鹿屋永野田郵便局,鹿児島県,鹿屋市,永野田町,31.349243,130.888872,8489.48307052559
横山簡易郵便局,鹿児島県,鹿屋市,横山町,31.349103,130.835265,7804.57351949041
大黒簡易郵便局,鹿児島県,鹿屋市,下高隈町,31.460315,130.880564,4001.08858994229
下祓川簡易郵便局,鹿児島県,鹿屋市,下祓川町,31.412875,130.853901,11822.2254763737
花岡簡易郵便局,鹿児島県,鹿屋市,花岡町,31.41027114110864,130.77592508702799,5034.94180912645
鹿屋笠之原郵便局,鹿児島県,鹿屋市,笠之原町,31.387573971018334,130.8886825215103,13663.4014201741
下百引簡易郵便局,鹿児島県,鹿屋市,下百引,31.521919,130.905697,3093.91125158497
市成郵便局,鹿児島県,鹿屋市,市成,31.587578,130.858311,3196.61729077354
高尾郵便局,鹿児島県,鹿屋市,諏訪原,31.572718,130.886224,3140.32854736157
百引郵便局,鹿児島県,鹿屋市,上百引,31.545065,130.864299,3212.90958270171
郷之原簡易郵便局,鹿児島県,鹿屋市,郷之原町,31.392652,130.819021,10447.5646155079
串良岡崎郵便局,鹿児島県,鹿屋市,岡崎,31.390685,130.958531,6505.94067805591
串良大園簡易郵便局,鹿児島県,鹿屋市,下小原,31.36986,130.94147,5982.44050514075
細山田郵便局,鹿児島県,鹿屋市,細山田,31.442956,130.920338,4898.38521044994
中山簡易郵便局,鹿児島県,鹿屋市,上小原,31.395045,130.915313,7734.98268602525
古江郵便局,鹿児島県,鹿屋市,古江町,31.404983,130.768407,4650.29477189913
吾平郵便局,鹿児島県,鹿屋市,麓,31.329023,130.898456,7018.93131229257
鹿屋向江町郵便局,鹿児島県,鹿屋市,向江町,31.384489,130.851735,24113.0025383161
高須郵便局,鹿児島県,鹿屋市,高須町,31.349184,130.795129,4285.72352882643
鹿屋寿郵便局,鹿児島県,鹿屋市,寿２丁目,31.389488,130.864262,24957.5047317509
鹿屋泉ヶ丘簡易郵便局,鹿児島県,鹿屋市,寿５丁目,31.38385,130.862096,24113.0025383161
鹿屋寿八郵便局,鹿児島県,鹿屋市,寿８丁目,31.385056,130.874251,24957.5047317509
高隈郵便局,鹿児島県,鹿屋市,上高隈町,31.490284,130.874896,3265.50763568428
鹿屋上野郵便局,鹿児島県,鹿屋市,上野町,31.380182,130.816515,12065.70812644
祓川郵便局,鹿児島県,鹿屋市,上祓川町,31.439678,130.857677,5467.79760155568
鹿屋新生簡易郵便局,鹿児島県,鹿屋市,新生町,31.382183,130.846874,19539.5415502057
姶良野簡易郵便局,鹿児島県,鹿屋市,池園町,31.341521,130.85968,7268.04497916944
鹿屋西原郵便局,鹿児島県,鹿屋市,西原１丁目,31.387238,130.840208,20730.3828747807
鹿屋松原簡易郵便局,鹿児島県,鹿屋市,西原２丁目,31.387349,130.831958,15658.5840030466
鹿屋桜ヶ丘簡易郵便局,鹿児島県,鹿屋市,西原４丁目,31.381432,130.827292,17113.6021810635
川西簡易郵便局,鹿児島県,鹿屋市,川西町,31.360936,130.877345,12419.6880943286
川東簡易郵便局,鹿児島県,鹿屋市,川東町,31.36688,130.885455,16127.6062017886
打馬簡易郵便局,鹿児島県,鹿屋市,打馬２丁目,31.396116,130.85306,21619.7066984031
鹿屋大浦簡易郵便局,鹿児島県,鹿屋市,大浦町,31.403589022133257,130.83082859584283,10554.9731424281
鹿屋大手町郵便局,鹿児島県,鹿屋市,大手町,31.389669,130.85062,24113.0025383161
天神簡易郵便局,鹿児島県,鹿屋市,天神町,31.374678,130.783474,4394.94803794812
鹿屋田崎簡易郵便局,鹿児島県,鹿屋市,川西町,31.36238,130.859402,12889.2936259133
大姶良郵便局,鹿児島県,鹿屋市,横山町,31.340559,130.83515,7094.16793928851
東原簡易郵便局,鹿児島県,鹿屋市,東原町,31.428096,130.883703,6686.48105155508
鹿屋南町郵便局,鹿児島県,鹿屋市,萩塚町,31.328217,130.869402,6567.68116401692
萩塚簡易郵便局,鹿児島県,鹿屋市,萩塚町,31.336818199476927,130.8681394491514,7503.95167004984
鹿屋郵便局,鹿児島県,鹿屋市,共栄町,31.379684,130.854624,21203.5793035128
白水簡易郵便局,鹿児島県,鹿屋市,白水町,31.396485,130.792989,6057.72362487402
浜田簡易郵便局,鹿児島県,鹿屋市,浜田町,31.327631,130.803463,4149.49004315865
野里簡易郵便局,鹿児島県,鹿屋市,野里町,31.359907,130.82771,10372.7611161321
有武簡易郵便局,鹿児島県,鹿屋市,花里町,31.418344,130.794515,4546.36659186942
枕崎金山郵便局,鹿児島県,枕崎市,金山町,31.312224,130.289716,3247.66303313477
鹿篭郵便局,鹿児島県,枕崎市,鹿篭麓町,31.28882,130.287757,9163.87232266657
枕崎住吉郵便局,鹿児島県,枕崎市,住吉町,31.271378,130.296979,10945.5007727851
枕崎郵便局,鹿児島県,枕崎市,桜木町,31.271628,130.287424,10101.7819172531
枕崎中町郵便局,鹿児島県,枕崎市,中町,31.268712,130.301312,7946.20312617715
白沢簡易郵便局,鹿児島県,枕崎市,白沢東町,31.25655869037488,130.36242705867662,2767.16102372445
枕崎別府郵便局,鹿児島県,枕崎市,別府東町,31.275484,130.34758,3665.39989928479
枕崎立神郵便局,鹿児島県,枕崎市,立神本町,31.269711,130.278897,10101.7819172531
阿久根郵便局,鹿児島県,阿久根市,琴平町,32.021772,130.195926,7856.14360992362
西目郵便局,鹿児島県,阿久根市,大川,31.986608,130.203871,3686.1046660115
折口簡易郵便局,鹿児島県,阿久根市,折口,32.061874,130.219506,4387.65080665858
大川郵便局（一時閉鎖）,鹿児島県,阿久根市,大川,31.949444,130.217455,2864.09496846893
阿久根大丸郵便局,鹿児島県,阿久根市,鶴見町,32.012995,130.197481,7125.4986088649
鶴川内郵便局,鹿児島県,阿久根市,鶴川内,32.028439,130.236784,4458.22666693652
阿久根山下郵便局,鹿児島県,阿久根市,波留,32.010245,130.21273,5144.5947188372
脇本郵便局,鹿児島県,阿久根市,脇本,32.082653,130.19562,4289.93356855426
黒之浜簡易郵便局,鹿児島県,長島町,山門野,32.090402,130.177593,3533.82486355468
前田簡易郵便局,鹿児島県,出水市,境町,32.15358707963186,130.36449588396263,4023.52283961762
西出水郵便局,鹿児島県,出水市,大野原町,32.072541,130.341951,12404.7162669224
江内郵便局,鹿児島県,出水市,江内,32.096698,130.253253,4351.39298354318
高尾野郵便局,鹿児島県,出水市,柴引,32.060907,130.297695,8005.39147832642
福ノ江郵便局,鹿児島県,出水市,汐見町,32.102292,130.31175,6395.49704676144
出水住吉簡易郵便局,鹿児島県,出水市,住吉町,32.119763,130.328499,8068.75137016078
大川内郵便局,鹿児島県,出水市,上大川内,32.07110800254856,130.4389869569794,2528.20689030005
出水上知識郵便局,鹿児島県,出水市,平和町,32.086766,130.339998,13573.2683648737
荘郵便局,鹿児島県,出水市,下水流,32.085821,130.281474,6216.96421175953
米ノ津郵便局,鹿児島県,出水市,米ノ津町,32.116347,130.340303,10455.6378167734
出水郵便局,鹿児島県,出水市,本町,32.081017,130.359635,13482.8415569918
野田郵便局,鹿児島県,出水市,下名,32.062963,130.268058,6385.63611256312
出水緑町簡易郵便局,鹿児島県,出水市,緑町,32.095516,130.349303,11386.21283611
玉井簡易郵便局,鹿児島県,指宿市,開聞仙田,31.214363,130.539896,4408.09091438992
開聞郵便局,鹿児島県,指宿市,開聞十町,31.205028,130.536348,3700.52535930265
開聞入野郵便局,鹿児島県,指宿市,開聞十町,31.203001,130.518488,3188.0748226992
上野簡易郵便局,鹿児島県,指宿市,開聞上野,31.213028,130.561485,3979.89779545791
仙田簡易郵便局,鹿児島県,指宿市,開聞仙田,31.211837,130.5481,4408.09091438992
下仙田簡易郵便局,鹿児島県,指宿市,開聞仙田,31.204501,130.544403,4069.44821481432
川尻郵便局,鹿児島県,指宿市,山川岡児ヶ水,31.179451,130.558581,2491.8910892772
今和泉郵便局,鹿児島県,指宿市,新西方,31.291326,130.600063,4370.37977653224
徳光郵便局,鹿児島県,指宿市,山川岡児ヶ水,31.176948,130.588762,2899.200813498
山川郵便局,鹿児島県,指宿市,町,31.20503,130.638313,3803.17469025724
成川郵便局,鹿児島県,指宿市,山川成川,31.210057,130.622897,4795.98758503441
大山郵便局,鹿児島県,指宿市,山川小川,31.200696,130.598288,4533.53971826482
利永郵便局,鹿児島県,指宿市,開聞上野,31.207528,130.572706,3709.95504869785
弥次ヶ湯簡易郵便局,鹿児島県,指宿市,十町,31.246853160079798,130.63827537679254,11638.196882915
中小路簡易郵便局,鹿児島県,指宿市,湊一丁目,31.236666,130.637284,11266.3933422439
指宿丈六簡易郵便局,鹿児島県,指宿市,湯の浜四丁目,31.227903692787304,130.64401973924484,9618.03465495082
新西方簡易郵便局,鹿児島県,指宿市,西方,31.275883,130.599508,4544.67161226794
吹越簡易郵便局,鹿児島県,指宿市,東方,31.270829,130.632755,7584.80409411487
指宿北郵便局,鹿児島県,指宿市,西方,31.27843,130.616574,6385.65429641981
東方簡易郵便局,鹿児島県,指宿市,西方,31.263274,130.61659,9283.78242025071
指宿郵便局,鹿児島県,指宿市,大牟礼三丁目,31.243804,130.645228,11638.196882915
池田郵便局,鹿児島県,指宿市,池田,31.262273,130.563511,3505.11305710503
十町郵便局,鹿児島県,指宿市,十町,31.251303,130.630645,11427.4164693551
指宿湯の浜郵便局,鹿児島県,指宿市,湯の浜二丁目,31.234055,130.648783,11285.0739820149
大隅垂水郵便局,鹿児島県,垂水市,栄町,31.492612,130.700048,8260.01410119429
海潟郵便局,鹿児島県,垂水市,海潟,31.528162,130.700186,4729.25542700861
牛根境郵便局,鹿児島県,垂水市,二川,31.609216,130.795147,3435.37950645389
牛根麓簡易郵便局,鹿児島県,鹿児島市,黒神町,31.556754,130.73075,3703.14953675383
大隅市木簡易郵便局,鹿児島県,垂水市,市木,31.500444,130.711047,7619.39385772142
新城郵便局,鹿児島県,垂水市,新城,31.437953,130.744629,3684.94522522658
中俣簡易郵便局,鹿児島県,垂水市,海潟,31.516525,130.699159,5830.63350416838
牛根郵便局,鹿児島県,垂水市,二川,31.582028115638177,130.785675,3356.99441641595
柊原郵便局,鹿児島県,垂水市,柊原,31.457498379879784,130.71494495500576,3992.2197576725
浜平簡易郵便局,鹿児島県,垂水市,本城,31.475725,130.696826,7651.20902733642
水之上郵便局,鹿児島県,垂水市,本城,31.481698,130.720879,6496.76641774402
永利郵便局,鹿児島県,薩摩川内市,永利町,31.795745,130.339527,10556.1251823722
寄田簡易郵便局,鹿児島県,薩摩川内市,寄田町,31.808848,130.186327,2251.35365581158
久見崎簡易郵便局,鹿児島県,薩摩川内市,港町,31.841524,130.20147,2869.35075524772
隈之城郵便局,鹿児島県,薩摩川内市,矢倉町,31.793519,130.310177,13680.2261733961
祁答院郵便局,鹿児島県,薩摩川内市,祁答院町下手,31.869514,130.493661,3718.89081804959
薩摩黒木簡易郵便局,鹿児島県,薩摩川内市,祁答院町黒木,31.884429,130.523324,3768.05893827224
上手簡易郵便局,鹿児島県,薩摩川内市,祁答院町上手,31.868292,130.512854,3687.65881318369
砂石簡易郵便局,鹿児島県,薩摩川内市,祁答院町藺牟田,31.801032303723524,130.480035800553,4020.48586628343
藺牟田郵便局,鹿児島県,薩摩川内市,祁答院町藺牟田,31.82227,130.497607,3805.92644732985
川内五代郵便局,鹿児島県,薩摩川内市,五代町,31.827376,130.275902,14577.2918201616
上川内郵便局,鹿児島県,薩摩川内市,御陵下町,31.831842,130.294974,19413.1867681614
高江郵便局,鹿児島県,薩摩川内市,湯島町,31.824737,130.250571,6574.49112791113
高城郵便局,鹿児島県,薩摩川内市,高城町,31.851096,130.289316,8501.9869210025
城上郵便局,鹿児島県,薩摩川内市,田海町,31.878065,130.300536,4842.60942856943
水引郵便局,鹿児島県,薩摩川内市,水引町,31.855177,130.234016,4095.13373651529
川内郵便局,鹿児島県,薩摩川内市,東向田町,31.813489,130.30726,19953.2387544854
西方郵便局,鹿児島県,薩摩川内市,西方町,31.912975,130.224375,2422.68443259761
川内大小路郵便局,鹿児島県,薩摩川内市,若葉町,31.823543,130.301344,22160.5338691567
川内中郷郵便局,鹿児島県,薩摩川内市,中郷１丁目,31.832539,130.311441,21791.3631543721
吉野山郵便局,鹿児島県,薩摩川内市,中村町,31.837895385948997,130.3603077262204,5908.73338558103
東郷山田郵便局,鹿児島県,薩摩川内市,東郷町山田,31.892371,130.388112,3470.27484273074
東郷鳥丸郵便局,鹿児島県,薩摩川内市,東郷町宍野,31.890842,130.335588,4660.17552250913
南瀬郵便局,鹿児島県,薩摩川内市,久住町,31.857097,130.385169,4611.29169237629
東郷郵便局,鹿児島県,薩摩川内市,白浜町,31.864661748796273,130.33369807038522,6626.21557530524
川内宮司簡易郵便局,鹿児島県,薩摩川内市,湯田町,31.906281,130.239236,2736.96754080734
山之口簡易郵便局,鹿児島県,薩摩川内市,入来町浦之名,31.767247,130.467222,4071.50081462212
入来麓郵便局,鹿児島県,薩摩川内市,入来町副田,31.804854,130.431557,5347.45903189366
入来郵便局,鹿児島県,薩摩川内市,入来町副田,31.822286,130.42881,5057.80145177344
川内向田郵便局,鹿児島県,薩摩川内市,白和町,31.818516,130.308482,22160.5338691567
市比野温泉郵便局,鹿児島県,薩摩川内市,樋脇町市比野,31.787133,130.403449,5549.49819020532
野下簡易郵便局,鹿児島県,いちき串木野市,冠岳,31.747829,130.370897,4134.82795610298
藤本簡易郵便局,鹿児島県,薩摩川内市,樋脇町市比野,31.740006,130.410694,4106.1865039615
倉野簡易郵便局,鹿児島県,薩摩川内市,樋脇町倉野,31.851076,130.395624,4487.04004233141
樋脇郵便局,鹿児島県,薩摩川内市,樋脇町塔之原,31.818491,130.387032,5549.49910969176
川内喜入簡易郵便局,鹿児島県,薩摩川内市,平佐町,31.811541135027074,130.32407336113656,19490.9079186755
平佐簡易郵便局,鹿児島県,薩摩川内市,平佐,31.813656,130.314926,19490.9079186755
陽成郵便局,鹿児島県,薩摩川内市,陽成町,31.877981,130.265929,3793.11172041066
下神殿簡易郵便局（一時閉鎖）,鹿児島県,日置市,伊集院町桑畑,31.65366,130.403024,11643.5352574893
伊集院郵便局,鹿児島県,日置市,伊集院町徳重三丁目,31.626564,130.397927,15528.7317487759
窪田簡易郵便局,鹿児島県,日置市,伊集院町下谷口,31.613789,130.419454,10749.0343780321
郡簡易郵便局,鹿児島県,日置市,伊集院町郡１丁目,31.637677352149304,130.40157702604887,16694.0597437836
大田簡易郵便局,鹿児島県,日置市,伊集院町大田,31.631222287549328,130.37813598434408,11256.2874296424
竹之山簡易郵便局,鹿児島県,日置市,伊集院町竹之山,31.633537,130.458313,10986.3864242588
朝日ヶ丘簡易郵便局,鹿児島県,日置市,伊集院町猪鹿倉,31.627896726629622,130.40475381160368,14650.0599228538
伊集院北郵便局,鹿児島県,日置市,伊集院町麦生田,31.653284,130.436035,9448.19343457626
飯牟礼簡易郵便局,鹿児島県,日置市,伊集院町飯牟礼,31.604122,130.386096,7455.16363633796
妙円寺団地郵便局,鹿児島県,日置市,伊集院町妙円寺１丁目,31.644618,130.396982,12336.9737203888
吹上永吉郵便局,鹿児島県,日置市,吹上町永吉,31.560264,130.355657,5430.81302742576
花田簡易郵便局,鹿児島県,日置市,吹上町中原,31.523103796451316,130.34848063623187,5441.02028949033
吹上郵便局,鹿児島県,日置市,吹上町湯之浦,31.508658,130.349548,6179.76500050486
吹上温泉郵便局,鹿児島県,日置市,吹上町湯之浦,31.501853,130.364325,5669.14436534769
与倉簡易郵便局,鹿児島県,日置市,吹上町與倉,31.52788,130.415153,6694.69112574021
江口郵便局,鹿児島県,日置市,東市来町伊作田,31.651287,130.323211,5982.65703469198
東市来長里郵便局,鹿児島県,日置市,東市来町長里,31.657671,130.345264,7691.43181285528
東市来郵便局,鹿児島県,日置市,東市来町湯田,31.673003,130.332541,8006.2605355315
皆田簡易郵便局,鹿児島県,日置市,東市来町湯田,31.676308,130.35129,6384.76134676594
下伊集院郵便局,鹿児島県,日置市,東市来町美山,31.642229,130.36193,7223.41163483971
上市来郵便局,鹿児島県,日置市,東市来町養母,31.683212,130.392701,6184.61755808775
吉利郵便局,鹿児島県,日置市,日吉町吉利,31.573012,130.341546,5426.0370800512
日置住吉簡易郵便局,鹿児島県,日置市,日吉町日置,31.612209515809575,130.3585485208524,6319.34245193236
日新簡易郵便局,鹿児島県,日置市,日吉町山田,31.60083148489355,130.34187305999234,6339.17373177733
日置郵便局,鹿児島県,日置市,日吉町日置,31.58915,130.347378,6348.87945634808
財部工業団地前簡易郵便局,宮崎県,都城市,蓑原町,31.722915,131.013231,16979.0069135737
中谷簡易郵便局,宮崎県,都城市,関之尾町,31.77281,130.980569,5075.84918210889
大川原郵便局,鹿児島県,曽於市,財部町下財部,31.771393,130.924852,3571.97074979546
財部郵便局,宮崎県,都城市,蓑原町,31.726121,130.995514,9119.52684297665
南財部郵便局,鹿児島県,曽於市,財部町南俣,31.7009,130.94227,4290.31420835126
岩川郵便局,鹿児島県,曽於市,末吉町岩崎,31.59633,130.993994,6023.97597589853
曙簡易郵便局,鹿児島県,曽於市,大隅町月野,31.582,131.006108,5748.49881831483
月野郵便局,鹿児島県,曽於市,大隅町月野,31.562251,130.999966,3861.33268165941
伊屋松郵便局,鹿児島県,曽於市,大隅町荒谷,31.563805,130.961192,3129.1006557527
恒吉郵便局,鹿児島県,曽於市,大隅町恒吉,31.584302,130.909611,3138.19809965986
神牟礼簡易郵便局,鹿児島県,曽於市,大隅町須田木,31.611521,130.906277,3165.05810667378
坂元郵便局,鹿児島県,曽於市,大隅町須田木,31.647849,130.898193,3645.9265214848
笠木郵便局,鹿児島県,曽於市,大隅町坂元,31.631909,130.964994,4200.21543145665
岩崎郵便局,鹿児島県,曽於市,末吉町岩崎,31.61638308743081,130.9985395632151,4938.00525950183
柳迫郵便局,鹿児島県,曽於市,末吉町深川,31.698263,131.005709,7910.22005801538
通山郵便局,鹿児島県,曽於市,財部町南俣,31.683597,130.941021,4266.57365802204
菅渡簡易郵便局,鹿児島県,曽於市,末吉町上町７丁目,31.648457,131.017042,8920.78527250259
高岡口簡易郵便局,鹿児島県,曽於市,末吉町南之郷,31.624357,131.125757,2884.9839934352
橋野簡易郵便局,鹿児島県,曽於市,末吉町二之方,31.643159531042727,131.04655749282992,6812.83514845994
南之郷郵便局,鹿児島県,曽於市,末吉町南之郷,31.61972265261346,131.05765521707664,4502.04847585716
末吉郵便局,鹿児島県,曽於市,末吉町本町１丁目,31.656073,131.019876,10106.3194612379
山ヶ野金山郵便局,鹿児島県,霧島市,横川町上ノ,31.903347,130.640094,3028.7407947793
安良簡易郵便局,鹿児島県,霧島市,横川町上ノ,31.896071,130.662565,3523.18819578288
横川郵便局,鹿児島県,霧島市,横川町中ノ,31.905153,130.702171,3772.22418115471
溝辺郵便局,鹿児島県,霧島市,溝辺町有川石原,31.830771,130.681037,5327.17444147093
石峯簡易郵便局,鹿児島県,霧島市,溝辺町麓石峯,31.815037052450137,130.7068385228261,6219.04309722858
論地簡易郵便局,鹿児島県,霧島市,溝辺町麓論地,31.790706,130.708173,8443.03711126344
鹿児島空港内簡易郵便局,鹿児島県,霧島市,溝辺町麓陵南,31.799969,130.716784,7454.20258074513
下井簡易郵便局,鹿児島県,霧島市,国分下井,31.709562,130.777922,13266.9320462871
木原簡易郵便局,鹿児島県,霧島市,国分郡田,31.774446,130.851331,3892.22460356697
郡田簡易郵便局,鹿児島県,霧島市,国分清水５丁目,31.762363,130.795946,12766.0489473629
向花簡易郵便局,鹿児島県,霧島市,国分向花町,31.747253,130.763644,26825.1973145373
国分広瀬郵便局,鹿児島県,霧島市,国分広瀬４丁目,31.714674288809366,130.76157921707664,18469.4256042731
重久郵便局,鹿児島県,霧島市,国分府中,31.768085,130.778225,15081.8467810214
松木簡易郵便局,鹿児島県,霧島市,国分野口町,31.73284180661392,130.7497607399027,27272.1940089422
上井簡易郵便局,鹿児島県,霧島市,国分湊,31.72095,130.779532,17487.4956161464
南国分郵便局,鹿児島県,霧島市,国分上井,31.722922,130.788198,11709.1901797216
上小川簡易郵便局,鹿児島県,霧島市,国分上小川,31.724274205887948,130.77146040481503,23835.7345297061
清水郵便局,鹿児島県,霧島市,国分清水１丁目,31.751086,130.777003,19502.4761845203
国分川原簡易郵便局,鹿児島県,霧島市,国分川原,31.741881,130.814889,6358.95075776717
国分郵便局,鹿児島県,霧島市,国分松木東,31.738323,130.760698,31579.2569672797
国分中央町郵便局,鹿児島県,霧島市,国分中央４丁目,31.733032,130.772588,26720.3846083572
敷根郵便局,鹿児島県,霧島市,国分敷根,31.704868,130.790115,8054.96960809651
福島簡易郵便局,鹿児島県,霧島市,国分福島,31.725477,130.759311,29850.6033415067
名波簡易郵便局,鹿児島県,霧島市,国分名波町,31.735254,130.780504,20581.4829144059
嘉例川簡易郵便局,鹿児島県,霧島市,隼人町嘉例川,31.82657526352947,130.722312374161,4383.15386351778
小田簡易郵便局（一時閉鎖）,鹿児島県,霧島市,隼人町小田,31.740758639397246,130.7201379856598,16382.8017503847
小浜簡易郵便局,鹿児島県,霧島市,隼人町小浜,31.735697,130.69057,10027.8153210315
松永郵便局,鹿児島県,霧島市,隼人町松永二丁目,31.777473,130.765753,12774.9069817928
浜之市郵便局,鹿児島県,霧島市,隼人町真孝,31.726435880706426,130.73209783031166,21858.2396178405
見次簡易郵便局,鹿児島県,霧島市,隼人町神宮六丁目,31.749265,130.747618,25691.7844326162
日当山郵便局,鹿児島県,霧島市,隼人町姫城一丁目,31.765501,130.753033,21863.7452686196
隼人郵便局,鹿児島県,霧島市,隼人町内山田一丁目,31.742531,130.737703,25691.7844326162
姫城簡易郵便局,鹿児島県,霧島市,隼人町姫城,31.760219,130.759323,21863.7452686196
福山郵便局,鹿児島県,霧島市,国分上之段,31.678039,130.814393,4651.8626662846
牧之原郵便局,鹿児島県,霧島市,福山町福山,31.670984,130.854363,4851.55517759812
大廻簡易郵便局,鹿児島県,霧島市,福山町福山,31.655180852228092,130.82319179989506,4236.82105015767
霧島温泉郵便局,鹿児島県,霧島市,牧園町高千穂,31.886241,130.819273,4731.65779871687
霧島西口郵便局,鹿児島県,霧島市,横川町下ノ,31.868963,130.735003,3920.79033284902
牧園郵便局,鹿児島県,霧島市,牧園町宿窪田,31.854493,130.752669,4229.62342515965
安楽郵便局,鹿児島県,霧島市,牧園町下中津川,31.81933,130.758558,4543.63177112855
牧園中津川郵便局,鹿児島県,霧島市,牧園町上中津川,31.851439,130.79136,3800.30049550955
霧島神宮前郵便局,鹿児島県,霧島市,霧島田口,31.85394,130.869881,3870.44691076384
霧島郵便局,鹿児島県,霧島市,霧島川北,31.820359,130.834886,4332.79702189514
芹ヶ野郵便局,鹿児島県,いちき串木野市,金山,31.752231,130.296448,5158.15291524381
冠岳簡易郵便局,鹿児島県,いちき串木野市,冠岳,31.733893053983735,130.3424457921338,4402.55601680243
羽島郵便局,鹿児島県,いちき串木野市,愛木町,31.757436,130.205605,3169.9961292287
串木野浜町郵便局,鹿児島県,いちき串木野市,港町,31.716136,130.262824,12745.0742007246
荒川簡易郵便局,鹿児島県,いちき串木野市,荒川,31.747908840814514,130.24867143204634,3926.42948441763
生福郵便局,鹿児島県,いちき串木野市,生福,31.727058016459075,130.3129879556637,5451.70589661566
市来川上郵便局,鹿児島県,いちき串木野市,海瀬,31.713474,130.327537,5104.14498667834
串木野郵便局,鹿児島県,いちき串木野市,大原町,31.716636,130.274239,12745.0742007246
市来大里郵便局,鹿児島県,いちき串木野市,川南,31.67889,130.307126,7420.57781504985
島平郵便局,鹿児島県,いちき串木野市,西島平町,31.707331,130.272017,12780.8181493965
市来郵便局,鹿児島県,いちき串木野市,湊町４丁目,31.692111015611236,130.2929414934878,8517.06694900572
益山郵便局,鹿児島県,南さつま市,益山,31.434275,130.315388,8816.23894052981
小湊郵便局,鹿児島県,南さつま市,小湊,31.4145,130.257368,3001.66780016568
久木野簡易郵便局,鹿児島県,南さつま市,津貫,31.34210739990079,130.2713065971586,2483.70223286051
津貫郵便局,鹿児島県,南さつま市,津貫,31.35934,130.2867,2875.86126102916
万世郵便局,鹿児島県,南さつま市,唐仁原,31.426717,130.293334,6863.5602422966
内山田郵便局,鹿児島県,南さつま市,加世田ハーモニー,31.391427608369632,130.31489252216818,4826.85516456986
内布簡易郵便局,鹿児島県,南さつま市,武田,31.403913934969722,130.29081029166707,5142.17354573993
加世田郵便局,鹿児島県,南さつま市,加世田麓町,31.414695,130.320639,10514.5575008241
赤生木郵便局,鹿児島県,南さつま市,大浦町干拓,31.395224,130.205872,2382.51353782391
黒瀬簡易郵便局,鹿児島県,南さつま市,片浦,31.38589400470794,130.17297230377568,1719.68938132341
野間池郵便局,鹿児島県,南さつま市,片浦,31.412944,130.132513,1348.09274346115
片浦郵便局,鹿児島県,南さつま市,片浦,31.419972,130.178261,2128.30026427338
笠沙郵便局,鹿児島県,南さつま市,片浦,31.408661,130.190571,2188.85270892564
阿多郵便局,鹿児島県,南さつま市,花瀬,31.434525,130.336941,7818.37180855873
大坂郵便局,鹿児島県,南さつま市,大野,31.473939,130.40249,4614.3408508802
白川簡易郵便局（一時閉鎖）,鹿児島県,南さつま市,白川,31.423806,130.369883,4580.98517622524
田布施郵便局,鹿児島県,南さつま市,尾下,31.460883,130.345383,5376.99438107573
大浦郵便局,鹿児島県,南さつま市,大浦町木連口,31.37942,130.225399,2976.60295137877
坊津久志郵便局,鹿児島県,南さつま市,久志,31.309229,130.225954,2093.26760349268
清原簡易郵便局,鹿児島県,南さつま市,泊,31.289569,130.248011,3025.79876576379
泊郵便局,鹿児島県,南さつま市,泊,31.282153,130.231047,3168.31772903524
坊郵便局,鹿児島県,南さつま市,坊,31.269488,130.230041,3003.53546787049
稚児ノ松簡易郵便局（一時閉鎖）,鹿児島県,志布志市,志布志,31.467364,131.08391,8585.66058332242
志布志安楽郵便局,鹿児島県,志布志市,安楽,31.478735,131.077349,8323.23407114345
弓場ヶ尾簡易郵便局,鹿児島県,志布志市,安楽,31.50426,131.093826,5555.79089725824
志布志夏井簡易郵便局,鹿児島県,志布志市,夏井,31.469959,131.133788,3311.87171028972
志布志東町郵便局,鹿児島県,志布志市,帖,31.478624,131.106457,6911.83436838563
志布志郵便局,鹿児島県,志布志市,志布志２丁目（２～）,31.473792,131.097236,7971.2248328565
志布志大原簡易郵便局,鹿児島県,志布志市,帖,31.4848835931953,131.09422176187192,8842.77303228061
田之浦郵便局,鹿児島県,志布志市,田之浦,31.557448,131.134647,2781.83724483419
内之倉郵便局,鹿児島県,志布志市,帖,31.528452,131.131342,2903.81305821192
立花迫簡易郵便局,鹿児島県,志布志市,帖,31.514815,131.138814,2857.40304405473
四浦簡易郵便局,鹿児島県,志布志市,田之浦,31.57668,131.178476,2183.35058679448
松山郵便局,鹿児島県,志布志市,新橋,31.575278,131.039461,4283.4759699813
泰野郵便局,鹿児島県,志布志市,泰野,31.567335,131.076541,3469.52161913211
尾野見郵便局,鹿児島県,志布志市,尾野見,31.551587,131.099373,3393.52864176741
伊崎田郵便局,鹿児島県,志布志市,伊崎田,31.532339,131.050184,3488.16080288821
山重郵便局,鹿児島県,志布志市,山重,31.522506,130.984524,3615.78294497331
馬場簡易郵便局,鹿児島県,志布志市,蓬原,31.484343411214585,131.0273714217868,4462.71595506609
蓬原郵便局,鹿児島県,志布志市,蓬原,31.484288,131.008523,4381.30691593766
有明郵便局,鹿児島県,志布志市,野井倉,31.493468,131.055915,4431.28764989982
野井倉郵便局,鹿児島県,志布志市,野井倉,31.455543,131.062573,5448.2285097449
野神簡易郵便局,鹿児島県,志布志市,野神,31.493648,130.988774,4055.87222203579
嶽簡易郵便局,鹿児島県,南九州市,郡,31.25564546058984,130.53040534613842,2839.04343082018
頴娃郵便局,鹿児島県,南九州市,郡,31.233511295793264,130.50528253453473,3817.74953020083
御領簡易郵便局,鹿児島県,南九州市,御領,31.252517937466354,130.46901271556086,3499.15219594123
渕別府簡易郵便局,鹿児島県,南九州市,牧之内,31.285048,130.483988,3201.15128877247
只角簡易郵便局,鹿児島県,南九州市,上別府,31.299163046834057,130.48246787225395,3234.70649070961
新牧簡易郵便局,鹿児島県,南九州市,上別府,31.316968762655367,130.50606940481504,2684.23991501373
青戸郵便局,鹿児島県,南九州市,上別府,31.299108524884275,130.45998576792522,3041.13244775363
折尾簡易郵便局,鹿児島県,南九州市,上別府,31.309323597218874,130.47557676858315,2972.22941048116
尾曲簡易郵便局,鹿児島県,南九州市,別府,31.28572009409247,130.45446775358502,3409.07067988013
石垣郵便局,鹿児島県,南九州市,別府,31.253831601682244,130.44176505801866,3279.53621956598
水成川簡易郵便局,鹿児島県,南九州市,別府,31.255344176463705,130.43572272391782,3924.37120032619
南薩大川郵便局,鹿児島県,南九州市,南別府,31.253135943101448,130.4170137450325,2962.27609114073
耳原簡易郵便局,鹿児島県,南九州市,南別府,31.28303945376154,130.41544765188786,3142.52551151572
西頴娃郵便局,鹿児島県,南九州市,郡,31.241770236853938,130.4916826662281,3970.52310322559
牧之内郵便局,鹿児島県,南九州市,御領,31.256340745698374,130.49073424641492,4474.11857230323
粟ヶ窪郵便局,鹿児島県,南九州市,牧之内,31.276749529543412,130.4940615632151,3025.48299750992
高田郵便局,鹿児島県,南九州市,宮,31.3712476598651,130.38217811603735,4939.78800227369
川辺上山田簡易郵便局,鹿児島県,南九州市,上山田,31.33650470738365,130.33678667925247,2811.32389722705
神殿郵便局,鹿児島県,南九州市,神殿,31.43137456087713,130.41896946414946,4308.31880449463
勝目郵便局,鹿児島県,南九州市,中山田,31.36950414855036,130.35530769227694,4479.69614419827
田部田郵便局,鹿児島県,南九州市,田部田,31.39422966511208,130.37777681423532,6772.33034171612
川辺郵便局,鹿児島県,南九州市,今田,31.39297781657286,130.39996871056448,7776.40078376862
永里郵便局,鹿児島県,南九州市,永里,31.346083271214106,130.4457685215103,4105.46745154508
知覧松山郵便局,鹿児島県,南九州市,南別府,31.2892733075234,130.39941512939072,3024.8956000326
中松簡易郵便局,鹿児島県,南九州市,永里,31.360327147835807,130.430547784897,5967.11964781537
知覧郵便局,鹿児島県,南九州市,郡,31.377844635104317,130.44248008702806,4906.10532803809
手蓑簡易郵便局,鹿児島県,南九州市,郡,31.395335659956558,130.49707019540188,3970.8709791286
霜出郵便局,鹿児島県,南九州市,瀬世,31.33877658968767,130.41906857252334,3849.25659256672
塗木簡易郵便局,鹿児島県,南九州市,東別府,31.32437321277199,130.41859446628277,3266.0641435031
浮辺郵便局,鹿児島県,南九州市,東別府,31.318347573408264,130.44121698302828,3344.07251101731
中渡瀬簡易郵便局,鹿児島県,南九州市,南別府,31.2581261122818,130.40439323207474,3231.64283841465
塩屋郵便局,鹿児島県,枕崎市,白沢東町,31.25331430077092,130.38129185495328,2659.95848647567
羽月駅前簡易郵便局,鹿児島県,伊佐市,大口堂崎,32.031802187616194,130.5956817252336,4593.28001851732
牛尾郵便局,鹿児島県,伊佐市,大口牛尾,32.10178950468662,130.61418808319627,3038.09211785517
大口郵便局,鹿児島県,伊佐市,大口元町,32.05823975590653,130.6099109713196,8437.42107767903
山野郵便局,鹿児島県,伊佐市,大口渕辺,32.09976004818031,130.5755045391399,4026.44640233186
小木原簡易郵便局,鹿児島県,伊佐市,大口渕辺,32.09342531250801,130.59049181226163,4194.12570847799
上八坂簡易郵便局,鹿児島県,伊佐市,大口上町,32.06316561223083,130.606366,7260.71531402832
針持郵便局,鹿児島県,伊佐市,大口針持,31.98208621689222,130.58188573924488,2961.3054501949
青木簡易郵便局,鹿児島県,伊佐市,大口目丸,32.05620651666557,130.63532861544613,5708.44571029807
西太良郵便局,鹿児島県,伊佐市,大口曽木,32.00770788453109,130.6015475508486,3855.04864915305
太田簡易郵便局,鹿児島県,伊佐市,大口大田,32.06946954806237,130.60429111505056,7917.16051375606
羽月郵便局,鹿児島県,伊佐市,大口大島,32.04444159049029,130.5915985071701,5661.97776888274
西羽月簡易郵便局（一時閉鎖）,鹿児島県,伊佐市,大口川岩瀬,32.030027,130.542179,2735.60909783565
平出水簡易郵便局,鹿児島県,伊佐市,大口渕辺,32.08241728019157,130.57069427865144,3417.11185704349
木ノ氏簡易郵便局,鹿児島県,伊佐市,大口大田,32.07978413686596,130.6176036981979,4932.04823172709
大口西本町簡易郵便局,鹿児島県,伊佐市,大口元町,32.05764890002187,130.60237565254576,8437.42107767903
菱刈重留郵便局,鹿児島県,伊佐市,菱刈重留,32.03611981849104,130.63279572095735,5034.65857359994
川南簡易郵便局,鹿児島県,伊佐市,菱刈川南,31.989908682884632,130.64839181160374,4149.85327987024
湯之尾郵便局,鹿児島県,伊佐市,菱刈川南,31.986195968014197,130.66244086962246,4183.72577083602
菱刈郵便局,鹿児島県,伊佐市,菱刈重留,32.01234910754136,130.642226,4048.77843154715
徳辺簡易郵便局,鹿児島県,伊佐市,菱刈徳辺,32.019196,130.658753,3967.63619812964
薩摩本城郵便局,鹿児島県,伊佐市,菱刈荒田,31.98995720051254,130.63109271319598,4065.0280636099
平松簡易郵便局,鹿児島県,姶良市,永池町,31.715393,130.612992,23310.8649308415
山田郵便局,鹿児島県,姶良市,下名,31.772137,130.613352,7483.66972517784
小山田簡易郵便局,鹿児島県,姶良市,反土,31.759964967290582,130.67437949414568,10027.5150478033
西別府簡易郵便局,鹿児島県,姶良市,西別府,31.766162166065115,130.65079043481123,10241.3114156167
高井田簡易郵便局,鹿児島県,姶良市,反土,31.74678575356607,130.66247092303593,18872.9855389557
加治木郵便局,鹿児島県,姶良市,本町,31.737794572465994,130.66565481226164,16941.0092889522
加治木須崎郵便局,鹿児島県,姶良市,東餅田,31.73063653835032,130.64599891297198,21865.4119668687
木田簡易郵便局,鹿児島県,姶良市,木田,31.746830752140625,130.65330410235504,18872.9855389557
漆簡易郵便局,鹿児島県,姶良市,漆,31.823654581854164,130.5600789748224,3586.1718877956
蒲生郵便局,鹿児島県,姶良市,上久徳,31.763547207944857,130.57174994198132,8121.58676075353
薄原簡易郵便局,鹿児島県,姶良市,白男,31.74676283200976,130.50290924471673,4722.86635546316
米丸簡易郵便局,鹿児島県,姶良市,米丸,31.78022072345377,130.56822194198134,6483.91202010893
帖佐駅前郵便局,鹿児島県,姶良市,宮島町,31.727642,130.628602,28097.8030982849
帖佐松原簡易郵便局,鹿児島県,姶良市,松原町１丁目,31.719636782273383,130.63266583962624,24153.2899731165
三船郵便局,鹿児島県,姶良市,増田,31.756111,130.601048,11193.2149946548
姶良郵便局,鹿児島県,姶良市,鍋倉,31.742196,130.62674,17705.4526100294
堂山簡易郵便局,鹿児島県,姶良市,北山,31.858933,130.602022,3045.68712581506
北山簡易郵便局,鹿児島県,姶良市,木津志,31.818832980604487,130.6015300430206,3745.20499543264
木津志簡易郵便局,鹿児島県,姶良市,木津志,31.82111000272997,130.5822113311404,3644.49759727559
重富郵便局,鹿児島県,姶良市,脇元,31.702561,130.612021,16834.1955151259
虎居簡易郵便局,鹿児島県,さつま町,宮之城屋地,31.909008,130.454218,7127.93327485216
永野郵便局,鹿児島県,さつま町,永野,31.925149,130.591402,2935.45368975931
永野金山郵便局,鹿児島県,さつま町,永野,31.9204,130.609095,2891.03223803171
久富木簡易郵便局,鹿児島県,さつま町,久富木,31.858459,130.450165,3999.8274059612
宮之城郵便局,鹿児島県,さつま町,宮之城屋地,31.905092,130.457246,7946.47859552268
求名広橋簡易郵便局,鹿児島県,さつま町,中津川,31.924332,130.541135,3457.82901721914
薩摩郵便局,鹿児島県,さつま町,求名,31.939229,130.533183,3447.3495891135
狩宿簡易郵便局,鹿児島県,さつま町,求名,31.968921,130.545459,2732.27392307253
宮之城佐志郵便局,鹿児島県,さつま町,広瀬,31.919674,130.492103,4049.23091550623
山崎郵便局,鹿児島県,さつま町,山崎,31.863485,130.431194,4590.24549543478
紫尾郵便局,鹿児島県,さつま町,紫尾,31.954614,130.437217,3391.52850176975
舟木簡易郵便局,鹿児島県,さつま町,船木,31.885173208779893,130.44978695665046,5982.97110569548
中津川郵便局,鹿児島県,さつま町,中津川,31.904956,130.541156,3550.7136168891
鶴田郵便局,鹿児島県,さつま町,湯田,31.949893,130.485492,4745.13590364416
宮之城湯田郵便局,鹿児島県,さつま町,湯田,31.945449,130.464965,4298.76529631345
鶴田柏原簡易郵便局,鹿児島県,さつま町,湯田,31.93145149204655,130.4672413261084,5289.10194813437
泊野簡易郵便局,鹿児島県,さつま町,泊野,31.942353,130.371097,2615.9997616704
白男川簡易郵便局,鹿児島県,さつま町,白男川,31.91127276778312,130.41946598434401,3868.45178952962
宮之城平川郵便局,鹿児島県,さつま町,白男川,31.939837,130.413524,3364.4736022956
山門野郵便局,鹿児島県,長島町,山門野,32.129675,130.159677,2459.83242770763
長島郵便局,鹿児島県,長島町,指江,32.155449,130.118264,2462.80851357331
獅子島郵便局,鹿児島県,長島町,獅子島,32.277966,130.219141,2056.68261570716
御所浦簡易郵便局,鹿児島県,長島町,獅子島,32.291049,130.237,2137.25946064897
本浦簡易郵便局,鹿児島県,長島町,諸浦,32.239913,130.175312,2253.17867024667
川床郵便局,鹿児島県,長島町,川床,32.146229,130.167926,2478.74927174455
蔵之元郵便局,鹿児島県,長島町,蔵之元,32.183584,130.105514,2422.57653484782
鷹巣郵便局,鹿児島県,長島町,鷹巣,32.199918,130.176119,2986.41960953333
伊唐簡易郵便局,鹿児島県,長島町,鷹巣,32.213973,130.20695,2140.17954041107
平尾郵便局,鹿児島県,長島町,平尾,32.18964,130.143038,2824.56125301138
轟簡易郵便局,鹿児島県,湧水町,恒次,31.966647,130.692864,3723.96941174588
幸田郵便局,鹿児島県,湧水町,幸田,31.938621,130.675394,3528.75169165726
川添簡易郵便局,鹿児島県,湧水町,川添,31.993147,130.748415,3813.47533386064
吉松郵便局,鹿児島県,湧水町,鶴丸,32.01484,130.744052,4356.0481649159
般若寺簡易郵便局,鹿児島県,湧水町,鶴丸,32.025727,130.737858,4198.23223452983
栗野郵便局,鹿児島県,湧水町,北方,31.952482,130.723779,4850.78031715105
益丸簡易郵便局（一時閉鎖）,鹿児島県,大崎町,神領,31.435085,131.023608,5777.00453954256
井俣簡易郵便局,鹿児島県,大崎町,井俣,31.447216664628836,131.00360005801866,5353.10848789228
木入道簡易郵便局,鹿児島県,大崎町,永吉,31.418434,131.000804,6382.65380375894
横瀬簡易郵便局,鹿児島県,大崎町,永吉，横瀬,31.408901407307784,131.01683886995136,4657.52448443092
横内簡易郵便局,鹿児島県,大崎町,持留,31.48137,130.941501,3395.05563603869
持留郵便局,鹿児島県,大崎町,持留,31.461293,130.965439,3811.85878914908
菱田郵便局,鹿児島県,志布志市,蓬原,31.444655,131.042299,4930.36050666204
中沖簡易郵便局,鹿児島県,大崎町,井俣,31.458458,131.021579,5038.66555828887
立小野簡易郵便局,鹿児島県,鹿屋市,下高隈町,31.471231,130.920698,3475.16435630775
荒佐簡易郵便局,鹿児島県,大崎町,野方,31.50195,130.933252,3497.7254314045
野方郵便局,鹿児島県,志布志市,山重,31.510838,130.948778,3474.91347771711
水の谷簡易郵便局,鹿児島県,志布志市,山重,31.534668,130.934445,2989.46139098328
大崎郵便局,鹿児島県,大崎町,仮宿,31.426038,131.006931,5421.71781231208
上町簡易郵便局,鹿児島県,大崎町,仮宿,31.42883346531092,131.01121670257197,5421.71781231208
仮宿簡易郵便局,鹿児島県,大崎町,仮宿,31.439702810641315,130.99551297000383,5270.51464170239
岩弘簡易郵便局,鹿児島県,東串良町,岩弘,31.415017,130.962447,5788.5349701482
柏原郵便局,鹿児島県,東串良町,新川西,31.363772,131.006334,3982.96516537987
溜水簡易郵便局,鹿児島県,東串良町,新川西,31.390372421435583,130.99804314603352,4738.25277542975
串良郵便局,鹿児島県,東串良町,池之原,31.392685,130.96342,6228.96100621152
大根占郵便局,鹿児島県,錦江町,城元,31.241836,130.785606,3988.09771463895
大隅池田簡易郵便局,鹿児島県,錦江町,城元,31.244338,130.870239,1961.11201538102
神川郵便局,鹿児島県,錦江町,神川,31.273781,130.795301,3104.1565402367
宿利原簡易郵便局,鹿児島県,錦江町,神川,31.267695,130.834046,2462.89550859752
川原簡易郵便局,鹿児島県,錦江町,田代川原,31.187208,130.833035,2140.87650940344
大隅大原簡易郵便局,鹿児島県,錦江町,田代麓,31.169624,130.881185,1358.16049299544
田代郵便局,鹿児島県,錦江町,田代川原,31.198731,130.846519,2485.87740304575
横別府郵便局,鹿児島県,南大隅町,根占横別府,31.184129,130.807873,2189.28653672914
大浜郵便局,鹿児島県,南大隅町,根占山本,31.190507,130.765748,2172.48814626698
根占郵便局,鹿児島県,南大隅町,根占川南,31.213985,130.772056,3663.04384468782
花ノ木簡易郵便局,鹿児島県,南大隅町,根占川北,31.221533,130.811882,2626.79761718319
登尾簡易郵便局,鹿児島県,南大隅町,根占辺田,31.133957,130.745835,1318.6832327364
島泊簡易郵便局,鹿児島県,南大隅町,佐多伊座敷,31.062437,130.678484,953.595109549462
佐多郵便局,鹿児島県,南大隅町,佐多伊座敷,31.0941,130.691036,1318.67248248599
大中尾簡易郵便局,鹿児島県,南大隅町,佐多伊座敷,31.110267,130.775584,1105.66326962664
竹之浦簡易郵便局,鹿児島県,南大隅町,佐多馬籠,31.045746,130.716481,923.716887387842
大隅郡簡易郵便局,鹿児島県,南大隅町,佐多郡,31.066299,130.733339,1128.7438776776
馬込簡易郵便局,鹿児島県,南大隅町,佐多伊座敷,31.085519,130.709251,1385.84055113736
大泊郵便局,鹿児島県,南大隅町,佐多馬籠,31.028302,130.685429,877.408600050678
辺塚簡易郵便局,鹿児島県,南大隅町,佐多辺塚,31.093493,130.827191,932.232584913394
船間簡易郵便局,鹿児島県,肝付町,岸良,31.187457,130.990591,1056.91124932698
岸良郵便局,鹿児島県,肝付町,岸良,31.226759,131.0022,1441.62661326388
宮富簡易郵便局,鹿児島県,肝付町,宮下,31.363494,130.912097,8128.75450729512
後田簡易郵便局,鹿児島県,肝付町,前田,31.321942,130.935925,4989.82207426594
川上簡易郵便局,鹿児島県,肝付町,後田,31.280638,130.949471,2213.78494926772
高山郵便局,鹿児島県,肝付町,前田,31.349411,130.947922,7923.86652575569
高山前田簡易郵便局,鹿児島県,肝付町,前田,31.344494,130.93223,7705.96545964714
内之浦郵便局,鹿児島県,肝付町,南方,31.27956,131.074191,2732.97144008425
波見郵便局,鹿児島県,肝付町,波見,31.356134,131.010612,3873.34140344776
高山有明簡易郵便局,鹿児島県,肝付町,波見,31.338386,131.066802,1708.21039812149
野崎簡易郵便局,鹿児島県,肝付町,野崎,31.345375,130.979648,4156.11119577044
阿波岐原簡易郵便局,宮崎県,宮崎市,新別府町,31.930277,131.461086,32631.4955770093
宮崎瓜生野郵便局,宮崎県,宮崎市,大字上北方,31.964997,131.391252,17748.8676528831
塩路簡易郵便局,宮崎県,宮崎市,大字塩路,31.979320744495173,131.47042708209386,14715.3902651421
宮崎花ヶ島郵便局,宮崎県,宮崎市,東大宮１丁目,31.947805,131.4325,41665.4575697734
学園木花台郵便局,宮崎県,宮崎市,学園木花台北３丁目,31.831601879446897,131.4197791010393,13093.2042112133
宮崎丸山郵便局,宮崎県,宮崎市,船塚２丁目,31.930278,131.420974,60054.5125660545
宮崎希望ヶ丘簡易郵便局,宮崎県,宮崎市,希望ケ丘２丁目,31.857862249925567,131.4240044354691,26117.0246368593
宮崎県庁内郵便局,宮崎県,宮崎市,橘通東２丁目,31.910614,131.422641,64425.2830089828
木花郵便局,宮崎県,宮崎市,大字熊野,31.827649,131.435615,14767.5031934393
宮崎月見ヶ丘郵便局,宮崎県,宮崎市,月見ケ丘４丁目,31.878007,131.419337,41374.0976429856
羽佐間簡易郵便局,宮崎県,宮崎市,大字塩路,31.997301,131.439775,15945.4634835551
宮崎江平郵便局,宮崎県,宮崎市,江平町,31.924279,131.426029,64941.8017068599
浦之名簡易郵便局,宮崎県,宮崎市,浦之名深水（大字浦之名）,31.954688,131.23868,4059.90176785966
花見簡易郵便局,宮崎県,宮崎市,花見花見（東高岡）,31.943386,131.336895,9741.19087746093
穆佐郵便局,宮崎県,宮崎市,下倉永祇園台（穆佐）,31.934026,131.33073,10358.855342788
内山簡易郵便局,宮崎県,宮崎市,内山新田（大字内山）,31.96384,131.274004,5534.89924934819
山下郵便局,宮崎県,宮崎市,浦之名去川（去川）,31.920027026085727,131.23474527641113,3447.28769041281
高岡郵便局,宮崎県,宮崎市,五町井上（中央）,31.957828,131.301869,8835.18558087995
宮崎中央郵便局,宮崎県,宮崎市,高千穂通１丁目,31.916752,131.425724,64941.8017068599
広瀬郵便局,宮崎県,宮崎市,石崎２丁目,32.014301,131.47441,18514.4091905541
下田島郵便局,宮崎県,宮崎市,下田島（西）,32.033188,131.470465,17605.3582639729
佐土原郵便局,宮崎県,西都市,大字現王島,32.048074,131.430023,9800.38949764362
佐土原那珂郵便局,宮崎県,宮崎市,東上那珂,32.02677,131.430024,9782.64987779732
宮崎山崎簡易郵便局,宮崎県,宮崎市,山崎町,31.95473789494507,131.4627604054729,15077.2409233552
宮崎倉岡郵便局,宮崎県,宮崎市,大字有田,31.959052,131.369115,13395.0700985726
宮崎小松簡易郵便局,宮崎県,宮崎市,大字小松,31.934522,131.402579,42560.9937968855
宮崎小松台郵便局,宮崎県,宮崎市,小松台東３丁目,31.929639,131.392864,42595.0545649226
宮崎昭和郵便局,宮崎県,宮崎市,昭和町,31.909198,131.435807,63930.5136661021
宮崎市役所内郵便局,宮崎県,宮崎市,橘通西１丁目,31.908447,131.419225,64425.2830089828
宮崎松山郵便局,宮崎県,宮崎市,瀬頭１丁目,31.907809,131.427946,60907.5963170755
宮崎城ヶ崎郵便局,宮崎県,宮崎市,城ヶ崎３丁目,31.896506,131.429863,52076.0654238085
宮崎新別府簡易郵便局,宮崎県,宮崎市,吉村町北,31.925641,131.449833,50164.3788610156
宮崎霧島郵便局,宮崎県,宮崎市,霧島５丁目,31.938027,131.416251,52188.2240863606
宮崎神宮東郵便局,宮崎県,宮崎市,神宮東３丁目,31.938722,131.427473,55212.8946391413
加納簡易郵便局,宮崎県,宮崎市,加納３丁目,31.87504485298957,131.40127910169718,38335.5198237628
清武郵便局,宮崎県,宮崎市,西新町,31.855603868384613,131.3908408552822,20239.7292315733
宮崎大学医学部内簡易郵便局,宮崎県,宮崎市,木原黒坂,31.84038069022711,131.39822941336755,13985.8441184248
宮崎生目台郵便局,宮崎県,宮崎市,生目台東４丁目,31.904085,131.375505,34543.656980482
青島郵便局,宮崎県,宮崎市,青島３丁目,31.795737,131.470028,4973.73174905741
宮崎青葉郵便局,宮崎県,宮崎市,青葉町,31.920558,131.436667,64941.8017068599
宮崎大橋郵便局,宮崎県,宮崎市,大橋２丁目,31.919363,131.411697,58413.5620624661
宮崎大塚台団地郵便局,宮崎県,宮崎市,大塚台東１丁目,31.917668,131.385615,36961.5638494288
宮崎大塚郵便局,宮崎県,宮崎市,大塚町南,31.913192,131.400752,61041.8416606219
宮崎京塚簡易郵便局,宮崎県,宮崎市,大坪西１丁目,31.897260288160155,131.40674664294414,48909.6057172075
宮交シティ内郵便局,宮崎県,宮崎市,大淀４丁目,31.894449,131.419808,54967.7217726492
宮崎大淀郵便局,宮崎県,宮崎市,中村東２丁目,31.898588,131.418503,54967.7217726492
田吉簡易郵便局,宮崎県,宮崎市,大字田吉,31.887244,131.438052,31642.0378569009
田野郵便局,宮崎県,宮崎市,甲中桜町（中央分団）,31.838396,131.303429,8663.55537299546
住吉郵便局,宮崎県,宮崎市,大字島之内,31.987969,131.452163,15915.7116027629
内海郵便局,宮崎県,宮崎市,大字折生迫,31.760158,131.472252,2844.81101914628
宮崎日ノ出郵便局,宮崎県,宮崎市,日ノ出町,31.90581,131.449111,44735.6394015291
宮崎波島郵便局,宮崎県,宮崎市,波島１丁目,31.937723,131.44711,44803.3543363804
富吉簡易郵便局,宮崎県,宮崎市,大字富吉,31.94468,131.354278,12783.1293950514
生目郵便局,宮崎県,宮崎市,大字小松,31.928194,131.379365,32319.5590203942
宮崎平和が丘郵便局,宮崎県,宮崎市,平和が丘北町,31.957581,131.413917,31729.381311791
宮崎芳士郵便局,宮崎県,宮崎市,大字芳士,31.965783,131.439712,22885.1895856891
宮崎高松通郵便局,宮崎県,宮崎市,南高松町,31.915308,131.415919,64425.2830089828
宮崎本郷郵便局,宮崎県,宮崎市,本郷２丁目,31.864256130290553,131.4325050143402,29407.4242141896
宮崎和知川原郵便局,宮崎県,宮崎市,和知川原２丁目,31.925195,131.412419,54973.1472886912
中郷郵便局,宮崎県,都城市,上長飯町南,31.688155,131.082702,10944.7017610952
都城一万城郵便局,宮崎県,都城市,一万城町,31.722096,131.089866,29651.571942014
都城横市郵便局,宮崎県,都城市,横市町,31.748583,131.026997,17799.5564321351
乙房簡易郵便局,宮崎県,都城市,乙房町,31.767397528655003,131.0590136942506,12189.5475060296
下水流簡易郵便局,宮崎県,都城市,下水流町,31.817949,131.108168,7094.17293932271
下長飯簡易郵便局,宮崎県,都城市,下長飯町,31.704958,131.063341,18773.3734128201
夏尾簡易郵便局,宮崎県,都城市,夏尾町,31.844777,130.973815,3289.85720805165
万ヶ塚簡易郵便局,宮崎県,都城市,山田町山田万ケ塚,31.815838006816605,131.0618003337719,7481.5771398087
五十市駅前簡易郵便局,宮崎県,都城市,久保原町,31.71915,131.034094,22508.3951709724
都城金田郵便局,宮崎県,都城市,金田町,31.77098,131.080199,15942.920795489
都城郡元郵便局,宮崎県,都城市,郡元１丁目,31.742139,131.088843,24941.436437413
高崎江平郵便局,宮崎県,都城市,高崎町江平温水,31.889303,131.091194,4199.8024440646
前田郵便局,宮崎県,都城市,高崎町前田町倉,31.909326,131.038225,4261.90732581403
高崎郵便局,宮崎県,都城市,高崎町大牟田中央団地,31.877275,131.064418,5252.48597973489
笛水簡易郵便局,宮崎県,都城市,高崎町笛水後平,31.930892,131.119464,3242.66899613668
縄瀬郵便局,宮崎県,都城市,高崎町縄瀬横谷,31.854417,131.086418,5632.87654612638
高城町郵便局,宮崎県,都城市,高城町高城上町,31.800397,131.131325,8084.60488304982
四家簡易郵便局,宮崎県,都城市,高城町四家みのの,31.910135,131.180658,3051.44855793414
石山簡易郵便局,宮崎県,都城市,高城町石山中方,31.834753,131.126527,5489.16902981643
有水郵便局,宮崎県,都城市,高城町有水田尾,31.854863,131.140192,4333.30968020049
都城高木郵便局,宮崎県,都城市,高木町,31.785591,131.107641,10044.7847699273
西岳郵便局,宮崎県,都城市,高野町,31.810751,130.949651,3413.26442147727
都城今町郵便局,宮崎県,都城市,今町,31.689923,131.03598,9096.42586520308
西栫郵便局,宮崎県,都城市,山田町山田西栫,31.815224,131.039624,6902.84350475512
是位川内簡易郵便局,宮崎県,都城市,山田町中霧島池之原,31.816992223518202,131.00830908735702,4340.76417886705
山田郵便局,宮崎県,都城市,山田町中霧島谷頭八,31.787644,131.053783,10087.2795361579
山之口郵便局,宮崎県,都城市,高城町大井手花立,31.782621,131.153166,8852.41368164468
山之口麓簡易郵便局,宮崎県,都城市,高城町大井手大久保,31.80098,131.164636,5160.33634979619
志比田簡易郵便局,宮崎県,都城市,志比田町,31.743621,131.056785,23393.0345745111
都城若葉簡易郵便局,宮崎県,都城市,若葉町,31.719157,131.080754,31020.9384604374
荘内郵便局,宮崎県,都城市,庄内町,31.773367,131.022149,8319.58834214775
都城松元郵便局,宮崎県,都城市,松元町東,31.722614,131.05841,29061.2745862025
菖蒲原簡易郵便局,宮崎県,都城市,菖蒲原町西,31.728388,131.083016,34801.6373646246
志和池郵便局,宮崎県,都城市,上水流町,31.811394,131.096724,8148.52361462473
都城川東郵便局,宮崎県,都城市,上川東３丁目,31.743955,131.075756,27328.6998624453
都城東町郵便局,宮崎県,都城市,東町,31.723549,131.07379,29282.3757051565
早水簡易郵便局,宮崎県,都城市,早水町,31.734841334543226,131.0948123037757,32450.3189437674
山野原簡易郵便局,宮崎県,都城市,太郎坊町,31.776039,131.091031,13950.0804009563
大岩田簡易郵便局,宮崎県,都城市,大岩田町,31.697098,131.056064,14184.3281107223
都城鷹尾郵便局,宮崎県,都城市,鷹尾２丁目,31.720622,131.04287,26767.6671214454
都城榎原簡易郵便局,宮崎県,都城市,鷹尾４丁目,31.726538,131.039149,29858.5962563392
都城郵便局,宮崎県,都城市,中町,31.726178,131.06484,33793.0348676575
都原簡易郵便局,宮崎県,都城市,都原町,31.737954,131.042342,25594.9987921542
都城都北簡易郵便局,宮崎県,都城市,都北町,31.761862,131.088416,17352.4664902172
梅北郵便局,宮崎県,都城市,梅北町,31.677378,131.059065,9455.84518387207
都城姫城郵便局,宮崎県,都城市,八幡町,31.718804,131.061141,29061.2745862025
都城北原郵便局,宮崎県,都城市,小松原町,31.734483,131.073173,29791.9698311705
野々美谷簡易郵便局,宮崎県,都城市,野々美谷町,31.78438601017993,131.0730573477832,10533.3234687672
延岡旭ヶ丘郵便局,宮崎県,延岡市,旭ケ丘５丁目,32.528505,131.680066,16099.4871881887
延岡旭郵便局,宮崎県,延岡市,旭町１丁目,32.574529,131.670981,26316.5242899529
延岡塩浜簡易郵便局,宮崎県,延岡市,塩浜町２丁目,32.539809,131.674677,18905.5293144618
延岡熊野江郵便局,宮崎県,延岡市,北浦町古江阿蘇,32.676162,131.783134,2034.83173281449
延岡古城簡易郵便局,宮崎県,延岡市,古城町４丁目,32.566437,131.660723,22282.0150485155
南延岡駅前郵便局,宮崎県,延岡市,構口町１丁目,32.559697,131.676093,23611.6017401887
延岡桜ヶ丘郵便局,宮崎県,延岡市,桜ケ丘１丁目,32.609276,131.672702,12867.3651639297
延岡駅前郵便局,宮崎県,延岡市,山下町２丁目,32.589972,131.669758,26578.4391853461
延岡若葉簡易郵便局,宮崎県,延岡市,若葉町２丁目,32.55131831999715,131.66762572095732,21478.7447504553
延岡出北郵便局,宮崎県,延岡市,出北１丁目,32.57614,131.680564,24044.6643848086
延岡西階郵便局,宮崎県,延岡市,西階町１丁目,32.572083,131.641345,22326.6559971862
延岡川島郵便局,宮崎県,延岡市,無鹿町１丁目,32.614943,131.692756,11497.7308620627
大貫簡易郵便局,宮崎県,延岡市,大貫町２丁目,32.578222,131.656954,27646.6807785415
延岡大瀬郵便局,宮崎県,延岡市,大瀬町２丁目,32.572779,131.665954,26316.5242899529
大武簡易郵便局,宮崎県,延岡市,粟野名町,32.597833,131.688368,14060.5362741731
延岡大門郵便局,宮崎県,延岡市,樫山町１丁目,32.601416,131.677368,17566.8741064843
祝子簡易郵便局,宮崎県,延岡市,大野町,32.622468,131.623761,4331.87542049665
延岡中川原郵便局,宮崎県,延岡市,中川原町３丁目,32.596694,131.674258,23090.7682306634
土々呂郵便局,宮崎県,延岡市,土々呂町４丁目,32.508636,131.682798,13613.8185217149
延岡島野浦郵便局,宮崎県,延岡市,島浦町,32.664886,131.813354,2015.86993134637
延岡一ケ岡団地郵便局,宮崎県,延岡市,南一ケ岡４丁目,32.518895,131.677316,15296.3911812344
延岡郵便局,宮崎県,延岡市,本町１丁目,32.580473,131.666925,30539.6376323591
延岡日の出町郵便局,宮崎県,延岡市,日の出町１丁目,32.589444,131.67573,24857.0512676729
延岡祇園郵便局,宮崎県,延岡市,博労町,32.585472,131.670536,26578.4391853461
延岡富美山郵便局,宮崎県,延岡市,富美山町,32.597388,131.663814,23090.7682306634
延岡舞野郵便局,宮崎県,延岡市,舞野町,32.578137,131.597766,5008.2744874795
延岡平原郵便局,宮崎県,延岡市,平原町２丁目,32.55242693220973,131.67345276792523,21478.7447504553
方財簡易郵便局,宮崎県,延岡市,方財町,32.58707293856776,131.70493829864597,9057.74353713088
宮野浦簡易郵便局,宮崎県,延岡市,北浦町宮野浦,32.696955,131.84047,1905.15429439948
北浦郵便局,宮崎県,延岡市,北浦町古江浜中,32.707772,131.820436,2622.30173327603
梅木郵便局,宮崎県,延岡市,北浦町三川内梅木,32.77071,131.804157,1672.68823837428
市棚簡易郵便局,宮崎県,延岡市,北川町川内名深瀬,32.728782683034055,131.71043140678873,1965.3666795009
北川郵便局,宮崎県,延岡市,北川町川内名熊田,32.68627705306694,131.69319414471775,2743.19980537326
下赤簡易郵便局,宮崎県,延岡市,北川町川内名下赤,32.746712010463106,131.63011324641496,1741.29398669332
長井郵便局,宮崎県,延岡市,北川町長井本村,32.6645970085156,131.70018359452703,3221.43350055542
上鹿川簡易郵便局,宮崎県,延岡市,北方町上鹿川申,32.703316,131.475105,1778.26063343624
川水流郵便局,宮崎県,延岡市,北方町川水流卯,32.561523,131.524634,3025.52599523893
曽木郵便局,宮崎県,延岡市,北方町北久保山子,32.575106,131.538411,3222.06832311239
早日渡簡易郵便局,宮崎県,延岡市,北方町早日渡巳,32.595555,131.492375,2267.34748088587
槇峰郵便局,宮崎県,延岡市,北方町槇峰未,32.627559,131.448141,2270.87227756109
延岡緑ヶ丘郵便局,宮崎県,延岡市,緑ケ丘２丁目,32.558242,131.683868,19536.8568756422
鵜戸郵便局,宮崎県,日南市,大字宮浦鵜戸,31.645337,131.455482,2074.03949811636
坊主田簡易郵便局,宮崎県,日南市,吾田東７丁目,31.61127208446645,131.37948118839626,11793.4944742882
日南郵便局,宮崎県,日南市,材木町,31.587755,131.401571,8524.97457379162
酒谷郵便局,宮崎県,日南市,大字酒谷乙酒谷２区,31.617556,131.306854,3333.28646392957
深瀬簡易郵便局,宮崎県,日南市,大字酒谷甲酒谷９区,31.63763056135924,131.2539016935927,2293.62665384052
日南星倉簡易郵便局,宮崎県,日南市,星倉３丁目,31.62453,131.36906875358505,11297.4722352011
大窪簡易郵便局,宮崎県,日南市,大字大窪仮屋,31.577422,131.303133,2646.72091695845
大堂津郵便局,宮崎県,日南市,大堂津３丁目,31.55598,131.380712,5468.69256535545
吾田郵便局,宮崎県,日南市,中央通１丁目,31.602087,131.379877,12960.7043438293
日南東郷郵便局,宮崎県,日南市,大字東弁分甲,31.624836,131.392181,7725.92903229265
榎原郵便局,宮崎県,日南市,上講,31.53528056507893,131.3067114638206,2368.3652567535
外浦郵便局,宮崎県,日南市,外浦,31.517098235741802,131.37241317787004,5118.55112212434
目井津簡易郵便局,宮崎県,日南市,目井津,31.541180410496022,131.38173628943554,5823.42015506092
栄松簡易郵便局,宮崎県,日南市,栄松,31.52512,131.377001,6917.73480721795
南郷郵便局,宮崎県,日南市,中央町,31.532825609762806,131.37157856584668,6763.8044542374
風田簡易郵便局,宮崎県,日南市,大字平山,31.609365,131.41893,4425.89140323064
北郷郵便局,宮崎県,日南市,大字郷之原（乙）蓑崎,31.67724440000843,131.37369040415717,3901.94123865773
北河内郵便局,宮崎県,日南市,大字北河内（本河内）坂元,31.694725821447303,131.35448394000764,3045.71495003748
萩之嶺郵便局,宮崎県,日南市,大字萩之嶺川下,31.564979,131.344241,3624.93397182383
油津郵便局,宮崎県,日南市,油津２丁目,31.582867,131.404071,7181.64277622201
飫肥郵便局,宮崎県,日南市,飫肥１丁目,31.625168,131.356017,8647.67664863419
小林南町簡易郵便局,宮崎県,小林市,細野細野１,31.994225149343677,130.96682730443362,12842.5648189088
小林上町郵便局,宮崎県,小林市,本町,31.99179,130.982031,13486.6580507061
小林城山簡易郵便局,宮崎県,小林市,細野細野２,31.982328800360666,130.97500814471775,13223.1867703047
細野簡易郵便局,宮崎県,小林市,細野細野２,31.978300839991647,130.9637734915142,10993.7338555606
小林西町簡易郵便局,宮崎県,小林市,細野細野１,31.999927,130.963421,12842.5648189088
真方簡易郵便局,宮崎県,小林市,細野細野１,31.9997339374394,130.98202475358505,13486.6580507061
須木郵便局,宮崎県,小林市,下田永田,32.072284,131.075022,2521.97249570134
水流迫簡易郵便局,宮崎県,小林市,水流迫,31.984291,130.997169,12888.1180912745
三松簡易郵便局,宮崎県,小林市,堤,31.970175,131.000839,8551.05158553596
東方郵便局,宮崎県,小林市,真方,32.010399,131.006251,5821.3352980871
西小林郵便局,宮崎県,小林市,北西方,32.010292,130.921688,5039.30170146612
永久津簡易郵便局,宮崎県,小林市,真方,32.020865,130.968571,5771.14328024596
小林郵便局,宮崎県,小林市,本町,31.992345,130.974698,12842.5648189088
西原簡易郵便局,宮崎県,小林市,三ケ野山西原,31.976832094602525,131.03391036771544,4933.20760802053
栗須郵便局,宮崎県,小林市,三ケ野山栗須,31.977670129382435,131.06270573924488,4224.55799515998
紙屋郵便局,宮崎県,小林市,紙屋新町,31.96210377799626,131.17518214471778,3580.10628482367
野尻郵便局,宮崎県,小林市,東麓町中心部,31.96019967387752,131.09676739113272,4236.89753844074
塩見簡易郵便局,宮崎県,日向市,塩見権現原,32.413875,131.604575,12726.6535725454
大王町簡易郵便局,宮崎県,日向市,日知屋枝郷亀崎東３丁目,32.435636,131.634564,17437.4571462589
幸脇簡易郵便局,宮崎県,日向市,美々津立縫,32.34066,131.611438,3565.41683319268
日向江良郵便局,宮崎県,日向市,日知屋本郷江良町４丁目,32.42068,131.639989,18851.052572431
細島郵便局,宮崎県,日向市,細島吉野川,32.425736,131.660348,14540.9882579741
下ヶ浜簡易郵便局,宮崎県,日向市,財光寺往還,32.410903,131.635101,22733.5081160566
日向財光寺郵便局,宮崎県,日向市,財光寺往還町,32.411431,131.626046,22733.5081160566
伊勢ヶ浜簡易郵便局,宮崎県,日向市,日知屋本郷中堀町３丁目,32.417042,131.650377,14053.8311851871
日向郵便局,宮崎県,日向市,日知屋枝郷鶴町２丁目,32.426652,131.6311,23522.1046446771
山陰郵便局,宮崎県,日向市,小野田牧水園,32.393097,131.532373,3052.07238244048
坪谷郵便局,宮崎県,日向市,坪谷市谷原,32.36357,131.445035,1945.21431176484
日向日知屋簡易郵便局,宮崎県,日向市,日知屋本郷塩田,32.430263,131.650487,14540.9882579741
美々津郵便局,宮崎県,日向市,美々津石並,32.332039,131.605083,3494.55583939163
岩脇郵便局,宮崎県,日向市,平岩笹野中,32.369801,131.628601,4245.36560839805
日向富高簡易郵便局,宮崎県,日向市,日知屋枝郷北町３丁目,32.434144,131.626407,17437.4571462589
日向本町郵便局,宮崎県,日向市,新町上町,32.423874,131.62685,26351.0568743408
市木郵便局,宮崎県,串間市,大字市木古都,31.464628,131.346189,1772.48025271849
串間今町郵便局,宮崎県,串間市,大字西方塩町,31.454823,131.208338,4627.84591102284
串間上町郵便局,宮崎県,串間市,大字西方上町,31.480292,131.241613,5112.17153501739
串間郵便局,宮崎県,串間市,大字西方泉町西,31.463544,131.227641,6900.37074674434
大平簡易郵便局,宮崎県,串間市,大字大平中原,31.556757,131.24736,2334.63196076917
都井郵便局,宮崎県,串間市,大字都井迫,31.396775,131.305583,1634.39788153297
大束郵便局,宮崎県,串間市,大字奈留新町,31.51015,131.246945,3215.0641632543
本城平郵便局,宮崎県,串間市,大字本城上平,31.43138,131.26364,2187.12796846056
尾八重簡易郵便局（一時閉鎖）,宮崎県,西都市,大字尾八重,32.26909507896568,131.31170894908476,1650.61430248289
西都大口川簡易郵便局,宮崎県,新富町,大字新田黒坂,32.113123,131.432769,6987.50685051841
瀬口簡易郵便局,宮崎県,西都市,大字岡富,32.07929473017469,131.41209869161904,7918.05916010819
三財郵便局,宮崎県,西都市,大字下三財,32.062127,131.360221,5758.51605550383
加勢簡易郵便局（一時閉鎖）,宮崎県,西都市,大字加勢,32.082014,131.338444,4979.61566836861
銀鏡郵便局,宮崎県,西都市,大字銀鏡,32.265575,131.252528,1678.10356013632
西都三宅郵便局,宮崎県,西都市,大字妻,32.098196,131.396771,9960.03338509644
稚児ヶ池簡易郵便局,宮崎県,西都市,大字妻,32.117566,131.399883,9978.53328591953
三納郵便局,宮崎県,西都市,大字平郡,32.113927,131.349831,4226.2711733603
上三財郵便局,宮崎県,西都市,大字上三財,32.07616571890957,131.3165158422578,4100.42621795863
西都郵便局,宮崎県,西都市,中央町２丁目,32.109234,131.408022,11209.2508846958
都於郡郵便局,宮崎県,西都市,大字都於郡町,32.055961,131.378331,6105.79844218684
杉安郵便局,宮崎県,西都市,大字南方,32.146869,131.37305,3787.77546190663
瓢丹渕郵便局,宮崎県,西都市,大字片内,32.215166,131.313886,1869.06755588535
宮ノ下簡易郵便局,宮崎県,西都市,大字藤田,32.090059,131.373244,5980.98874179088
上穂北郵便局,宮崎県,西都市,大字穂北,32.13162,131.393133,8339.97955745568
大溝原簡易郵便局,宮崎県,えびの市,大字西郷大溝原,32.040940419933925,130.78981789731597,4339.44708418237
えびの岡松簡易郵便局,宮崎県,えびの市,大字岡松北岡松,32.049558,130.744912,4092.50343052738
飯野駅前郵便局,宮崎県,えびの市,大字原田駅前,32.03256,130.869427,5827.24641239565
えびの郵便局,宮崎県,えびの市,大字原田町,32.044865,130.865122,5860.63595439107
えびの五日市簡易郵便局,宮崎県,えびの市,大字原田五日市,32.044671604417864,130.88380178226546,5995.35888214727
真幸郵便局,宮崎県,えびの市,大字向江京町,32.046198,130.764661,4648.1667154721
加久藤郵便局,宮崎県,えびの市,大字小田中島,32.044977,130.815351,5062.03197076418
えびの上江簡易郵便局,宮崎県,えびの市,大字上江中上江,32.03087446717196,130.84925562189176,4798.28913497019
大河平簡易郵便局,宮崎県,えびの市,大字原田杉水流,32.039727,130.905424,4104.38297997022
大明司簡易郵便局,宮崎県,えびの市,大字大明司大明司,32.048809,130.838958,4903.06723244294
島内簡易郵便局,宮崎県,えびの市,大字島内下島内,32.059253,130.781298,4325.86426695669
栗下簡易郵便局,宮崎県,えびの市,大字栗下栗下,32.037617,130.813435,5128.05318025312
植木簡易郵便局,宮崎県,三股町,大字樺山９地区,31.72699310806498,131.10730286962243,28564.9779698356
三股郵便局,宮崎県,三股町,五本松８地区,31.73204,131.119309,20580.2072627842
宮村郵便局,宮崎県,三股町,大字宮村３地区,31.708487,131.121504,13328.165835279
長田簡易郵便局,宮崎県,三股町,大字長田５地区,31.736578,131.18735,4421.67294740753
蓼池郵便局,宮崎県,三股町,大字蓼池６地区,31.75665,131.118502,15126.5536078819
狭野簡易郵便局,宮崎県,高原町,大字蒲牟田中平,31.907647141296955,130.9801709133009,4279.54585431428
後川内簡易郵便局,宮崎県,高原町,大字後川内上後川内,31.924478879663106,131.06925627575328,3707.91825227655
広原簡易郵便局,宮崎県,高原町,大字広原上広原,31.959099,130.98867,8199.29326288049
並木郵便局,宮崎県,高原町,大字西麓並木,31.924185,130.991421,5896.49052788161
高原郵便局,宮崎県,高原町,大字西麓上麓,31.929713,131.007809,6031.41057676599
宮王丸簡易郵便局,宮崎県,国富町,大字本庄,31.990744,131.347893,10993.4657590816
三名簡易郵便局,宮崎県,国富町,大字伊左生,32.00309092564387,131.34479238376267,8186.78073960979
森永郵便局,宮崎県,国富町,大字竹田,31.998242,131.285034,7485.7791490973
深年簡易郵便局,宮崎県,国富町,大字須志田,32.022422,131.290447,5667.42598567814
八代郵便局,宮崎県,国富町,大字八代北俣,32.026934,131.308003,5080.30493009436
北俣簡易郵便局,宮崎県,国富町,大字八代北俣,32.043156,131.318585,4756.50320162588
六日町簡易郵便局,宮崎県,国富町,大字宮王丸,31.987245,131.332546,9892.99980426545
国富郵便局,宮崎県,国富町,大字本庄,31.989381555719408,131.32694186962243,9892.99980426545
十日町簡易郵便局,宮崎県,国富町,大字本庄,31.990965,131.317727,10093.967991016
木脇郵便局,宮崎県,国富町,大字塚原,31.985189,131.364475,10606.2722698474
四枝簡易郵便局,宮崎県,綾町,四枝,31.99804,131.230807,4728.00437535293
綾郵便局,宮崎県,綾町,南麓,31.998685,131.256619,7212.67714646792
宮原簡易郵便局,宮崎県,綾町,宮原,32.005824,131.26909,7828.68123296959
高鍋駅前郵便局,宮崎県,高鍋町,大字蚊口浦蚊口中,32.12293,131.531899,7555.2338541727
高鍋持田簡易郵便局,宮崎県,高鍋町,大字持田持田,32.13874831387422,131.52746040613079,7402.76822896901
上江簡易郵便局,宮崎県,高鍋町,大字上江北平原,32.138622,131.502206,11686.5242808337
牛牧簡易郵便局,宮崎県,高鍋町,大字上江南牛牧,32.134508,131.48488169622425,6821.77155558008
高鍋郵便局,宮崎県,高鍋町,大字北高鍋菖蒲池西,32.127762,131.516622,12065.0265367289
上新田郵便局,宮崎県,新富町,大字新田上谷川,32.100374,131.447296,6568.44823149677
新田郵便局,宮崎県,新富町,大字新田洗出,32.072655,131.443215,7791.93539658839
新富郵便局,宮崎県,新富町,富田１丁目,32.068246,131.489012,8482.77737839065
越野尾郵便局,宮崎県,西米良村,大字越野尾,32.197335977430996,131.24219150322278,1800.49342172883
村所郵便局,宮崎県,西米良村,大字村所,32.225604,131.154981,1901.44006423313
木城郵便局,宮崎県,高鍋町,大字上江老瀬,32.161897,131.469458,5811.09337267996
石河内簡易郵便局,宮崎県,木城町,大字川原,32.21931816169484,131.41448972358887,2181.66343380072
川南郵便局,宮崎県,川南町,１地区,32.192811,131.52534,6905.67730239053
川南港簡易郵便局,宮崎県,川南町,１０地区,32.172842,131.549422,4459.90341509867
塩付郵便局,宮崎県,川南町,７地区,32.220088,131.540921,4967.7031938288
番野地郵便局,宮崎県,高鍋町,大字持田俵橋,32.171674,131.517621,5792.3921204679
十文字簡易郵便局,宮崎県,川南町,２地区,32.18280607946437,131.48391784291564,4841.14396304765
東都農郵便局,宮崎県,都農町,大字川北あけぼの団地,32.296525,131.578526,3203.07030659943
都農郵便局,宮崎県,都農町,大字川北駅通,32.253529,131.560889,6153.34043974552
草川郵便局,宮崎県,門川町,加草１丁目,32.485758,131.663207,9004.0143311107
門川栄町簡易郵便局,宮崎県,門川町,宮ケ原１丁目,32.482036,131.650624,12981.1054084389
西門川郵便局,宮崎県,門川町,大字川内,32.490421,131.578742,3299.22582911886
門川南町簡易郵便局,宮崎県,門川町,南町４丁目,32.45918444662686,131.6462213191028,11624.4266476094
門川郵便局,宮崎県,門川町,本町２丁目,32.470926,131.649875,13365.0817928925
諸塚郵便局,宮崎県,諸塚村,大字家代諸塚町,32.51291,131.330985,2031.37333159814
七ツ山郵便局,宮崎県,諸塚村,大字七ツ山七ツ山,32.561094,131.27893,1824.70427196423
上椎葉郵便局,宮崎県,椎葉村,下福良上椎葉,32.467661,131.158167,2056.66095339891
松尾郵便局,宮崎県,椎葉村,松尾岩屋戸,32.489551,131.243605,1770.69209444746
尾崎郵便局,宮崎県,椎葉村,大河内栂尾,32.403865,131.229526,1610.13906509644
大河内簡易郵便局,宮崎県,椎葉村,大河内野々首,32.365545,131.142175,1747.94851957169
不土野簡易郵便局,宮崎県,椎葉村,下福良春山、滝,32.49364965256276,131.0728674969906,2052.17027288662
山三箇郵便局,宮崎県,美郷町,大字小原,32.467634,131.376009,1803.3473236643
西郷郵便局,宮崎県,美郷町,大字田代,32.439672,131.423673,2176.87049957558
渡川簡易郵便局,宮崎県,美郷町,大字上渡川,32.345707,131.269025,1668.73874012755
神門郵便局,宮崎県,美郷町,大字神門,32.38512,131.332683,1929.10083519357
宇納間郵便局,宮崎県,美郷町,大字宇納間（中原区）,32.501193,131.444807,2088.61785198448
入下郵便局,宮崎県,美郷町,大字入下,32.496622,131.486378,2195.30626959841
押方簡易郵便局,宮崎県,高千穂町,大字押方,32.709503,131.292201,4931.96295696888
田原郵便局,宮崎県,高千穂町,大字河内,32.776341,131.25513,2633.79390494633
天岩戸郵便局,宮崎県,高千穂町,大字岩戸,32.733086,131.34828,3442.56478056656
高千穂郵便局,宮崎県,高千穂町,大字三田井,32.712337,131.309117,6291.34070923241
上野郵便局,宮崎県,高千穂町,大字下野,32.752749,131.297173,3116.69554673313
日之影郵便局,宮崎県,日之影町,大字七折,32.654566,131.38714,2698.36901087483
見立簡易郵便局,宮崎県,日之影町,大字見立,32.780383905623566,131.44405153585052,1792.7909689851
天翔大橋簡易郵便局,宮崎県,高千穂町,大字向山,32.685015,131.330134,3065.51313249476
八戸郵便局,宮崎県,延岡市,北方町槇峰未,32.620849,131.429277,2028.68844872822
鞍岡郵便局,宮崎県,五ヶ瀬町,大字鞍岡矢惣園、祇園町,32.643756,131.15819,2557.534107858
五ヶ瀬郵便局,宮崎県,五ヶ瀬町,大字三ヶ所立壁、貫原,32.684726,131.199183,3042.87944726698
坂本簡易郵便局,宮崎県,五ヶ瀬町,大字三ヶ所牧,32.65388,131.222934,2446.85457919501
一尺屋郵便局,大分県,大分市,大字一尺屋一尺屋上浦,33.201471,131.858529,3617.70093302086
大分荏隈郵便局,大分県,大分市,大字荏隈,33.212721,131.583377,51822.1525358193
大分城南郵便局,大分県,大分市,大字永興（その６）,33.21941355824862,131.58460101434022,55511.365303845
敷戸簡易郵便局,大分県,大分市,大字旦野原,33.17996674249542,131.61549960557784,37787.7337677752
大分横瀬簡易郵便局,大分県,大分市,大字平横瀬,33.189017,131.538112,26680.3856924181
大分王子郵便局,大分県,大分市,王子町,33.243237,131.591746,48167.5258174547
大分下郡郵便局,大分県,大分市,下郡中央２丁目,33.226156,131.632437,64310.2608325028
下徳丸郵便局,大分県,大分市,大字下徳丸,33.211466,131.690071,27482.0530823941
河原内簡易郵便局,大分県,大分市,大字河原内,33.116512,131.60335,5931.39235213186
大分賀来郵便局,大分県,大分市,賀来南２丁目,33.210459,131.564132,37856.2872172341
大分角子原郵便局,大分県,大分市,角子南２丁目,33.245324,131.712513,30355.3057039738
大分寒田郵便局,大分県,大分市,大字寒田寒田北町,33.185438,131.607495,42867.9344249764
大分久原簡易郵便局,大分県,大分市,久原南２丁目,33.23569946349065,131.7640333578471,12411.8635836733
宮河内簡易郵便局（一時閉鎖）,大分県,大分市,大字丸亀,33.197329,131.696459,18752.104396442
宮河内ハイランド簡易郵便局,大分県,大分市,大字宮河内,33.19127202197319,131.70222073924484,12338.9220052614
大分南郵便局,大分県,大分市,大字市,33.187352,131.577331,39259.1409921045
大分錦町郵便局,大分県,大分市,錦町１丁目,33.235072,131.618466,62620.1135282789
大分金池郵便局,大分県,大分市,金池町１丁目,33.232045,131.610688,66014.3042991618
大分羽屋郵便局,大分県,大分市,大字古国府,33.215990884408015,131.60632320273643,57032.7288779125
大分高崎郵便局,大分県,大分市,高崎４丁目,33.233654,131.579358,46956.4141220038
大分高松郵便局,大分県,大分市,日岡１丁目,33.247711,131.659045,47525.975251743
大分田尻簡易郵便局,大分県,大分市,大字田尻田尻グリーンハイツ東,33.181215,131.587024,28716.2244824649
今市郵便局,大分県,大分市,大字今市,33.105969,131.450761,3696.35831510981
佐賀関郵便局,大分県,大分市,大字関,33.247439,131.876277,3733.17121903088
古宮簡易郵便局,大分県,大分市,大字関古宮,33.248606,131.866138,4588.7864883204
大分丹生郵便局,大分県,大分市,大分流通業務団地１丁目,33.216633,131.723179,17047.8043905492
坂ノ市郵便局,大分県,大分市,坂ノ市中央４丁目,33.232592,131.751739,16957.9557867946
大分永興郵便局,大分県,大分市,大字永興（その７）,33.215823,131.592413,59842.1063494877
三佐郵便局,大分県,大分市,三佐４丁目,33.251219,131.681725,29618.4052987556
志生木簡易郵便局,大分県,大分市,大字志生木小志生木,33.247216,131.836057,4443.347142952
辛幸簡易郵便局,大分県,大分市,大字志生木辛幸,33.251503,131.85181576792522,4160.2962113189
川添郵便局,大分県,大分市,大字種具,33.219716,131.699403,34165.5780741164
小佐井簡易郵便局,大分県,大分市,小佐井２丁目,33.225568,131.745587,20367.8585900185
大分池ノ平郵便局,大分県,大分市,大字小池原,33.23374,131.661656,61660.244523896
松岡郵便局,大分県,大分市,大字松岡,33.181829,131.666602,18774.3271117608
大分上宗方郵便局,大分県,大分市,大字上宗方（うち丁字名未表示区域）,33.201518,131.584219,50997.485263276
大分二豊郵便局,大分県,大分市,大字上宗方（うち丁字名未表示区域）,33.195352,131.579719,41220.9806078622
大分上野郵便局,大分県,大分市,上野丘西,33.222185,131.612744,61896.600735796
大分千代町郵便局,大分県,大分市,碩田町１丁目,33.246768,131.607137,50121.0453021873
大分東郵便局,大分県,大分市,大字森,33.215045,131.678738,38783.7858859003
別保郵便局,大分県,大分市,大字森町,33.22652,131.679932,46017.1358185923
大分生石郵便局,大分県,大分市,浜の市２丁目,33.245959,131.583635,34682.3146270782
大在郵便局,大分県,大分市,大在中央２丁目,33.244186,131.724289,30355.3057039738
大分県庁内郵便局,大分県,大分市,大手町３丁目,33.238128,131.612605,62620.1135282789
大分大道郵便局,大分県,大分市,大道町２丁目,33.2331,131.600912,66014.3042991618
竹中郵便局,大分県,大分市,大字竹中,33.133261671236944,131.6545634491514,9029.20902735678
矢ノ原郵便局,大分県,大分市,大字竹矢,33.147244,131.51106,6744.7821473802
戸次郵便局,大分県,大分市,けやき台１丁目,33.152423,131.656491,15757.6157287308
鶴崎駅前郵便局,大分県,大分市,中鶴崎１丁目,33.240991,131.689987,35852.3195709841
大分中島中央三郵便局,大分県,大分市,中島中央３丁目,33.245793,131.614938,55489.3774127509
判田郵便局,大分県,大分市,大字下判田,33.165691,131.639077,21087.5445119179
大分千才郵便局,大分県,大分市,仲西町１丁目,33.242462,131.663683,45638.5394701641
大分猪野郵便局,大分県,大分市,大字猪野,33.220242,131.664768,53307.4142822092
大分滝尾郵便局,大分県,大分市,大字古国府,33.208936,131.614994,51324.9113951959
吉野郵便局,大分県,大分市,大字辻,33.113289,131.695012,6834.16581924182
東稙田郵便局,大分県,大分市,大字田尻（うち丁字名未表示区域）,33.187589,131.594904,42250.7963903621
大分ふじが丘郵便局,大分県,大分市,大字田尻ふじが丘東,33.17931775538109,131.5980571720824,33922.7510463545
大分津留郵便局,大分県,大分市,東津留１丁目,33.241433,131.63127,62209.9401825618
大分東浜郵便局,大分県,大分市,東浜１丁目,33.247599,131.630076,52100.554790764
大分東野台郵便局,大分県,大分市,東野台１丁目,33.208071,131.53664,23041.1363673996
小中島郵便局,大分県,大分市,小中島３丁目,33.246597,131.696821,33537.538424838
大分南春日郵便局,大分県,大分市,南春日町,33.23646,131.595246,57494.2384633474
大分萩原郵便局,大分県,大分市,萩原１丁目,33.242933,131.641074,49572.7949981596
白木浜簡易郵便局,大分県,大分市,大字白木,33.232857,131.870694,3740.12324249304
大分畑中郵便局,大分県,大分市,大字畑中,33.204519,131.600412,55500.8271665978
大久保簡易郵便局,大分県,大分市,高崎２丁目,33.241417079401856,131.57369340942023,30048.4498661367
大分富士見が丘郵便局,大分県,大分市,富士見が丘西１丁目,33.181932,131.543298,19024.7205943396
大分中央郵便局,大分県,大分市,府内町３丁目,33.23885,131.608328,69361.9062901141
大分敷戸団地郵便局,大分県,大分市,敷戸南町,33.186716,131.622661,37048.8685608545
幸崎郵便局,大分県,大分市,大字馬場,33.239004,131.79724,6659.12904512218
明野地区センター内郵便局,大分県,大分市,明野南１丁目,33.223352,131.652296,54353.2040132414
大分明野郵便局,大分県,大分市,明野北１丁目,33.228823,131.653046,58946.8407892287
木上簡易郵便局,大分県,大分市,大字田原,33.184131,131.566229,29955.4158075908
野津原郵便局,大分県,大分市,大字野津原,33.163741,131.531227,11315.275896451
大分緑ヶ丘簡易郵便局,大分県,大分市,緑が丘２丁目,33.18523141231045,131.5277519086957,19957.5982400048
別府亀川郵便局,大分県,別府市,大字亀川,33.328838,131.493783,24165.456826537
別府幸郵便局,大分県,別府市,天満町,33.284646,131.496839,45754.1063178582
別府春木郵便局,大分県,別府市,大字北石垣,33.306244,131.489318,44958.659310767
別府松原郵便局,大分県,別府市,松原町,33.273343,131.50681,24865.8046483753
別府平田郵便局,大分県,別府市,照波園町,33.319311,131.496088,32273.6893784637
別府上人郵便局,大分県,別府市,大字北石垣,33.312506,131.494116,38815.8902101116
別府上田ノ湯郵便局,大分県,別府市,光町,33.275968,131.496405,39299.5343818085
別府吉弘郵便局,大分県,別府市,石垣東６丁目,33.297923,131.496922,46598.4509081443
別府扇山郵便局,大分県,別府市,大字鶴見,33.297174,131.472451,35450.3379191942
別府荘園郵便局,大分県,別府市,大字南石垣,33.29133,131.481488,43062.3981257682
別府竹ノ内郵便局,大分県,別府市,大字鶴見,33.301566,131.465726,35192.3644862145
別府中島郵便局,大分県,別府市,中島町,33.276314,131.491339,39299.5343818085
別府国立簡易郵便局,大分県,別府市,大字内竃,33.33129962363791,131.48562822299766,24261.5189208222
南立石簡易郵便局,大分県,別府市,大字南立石,33.29040906731326,131.46934664399322,32240.2579581124
別府観海寺郵便局,大分県,別府市,大字南立石,33.283862,131.476479,43062.3981257682
別府朝日郵便局,大分県,別府市,大字鶴見,33.30491998583226,131.47589971964157,48046.3410428852
別府浜脇郵便局,大分県,別府市,浜脇２丁目,33.269315,131.507782,24865.8046483753
別府鉄輪郵便局,大分県,別府市,大字鶴見,33.313465889873214,131.47652050717008,39152.6621344068
別府北浜郵便局,大分県,別府市,北浜２丁目,33.279758,131.50506,34716.5582113588
別府末広郵便局,大分県,別府市,末広町,33.273981,131.502977,24865.8046483753
別府郵便局,大分県,別府市,餅ケ浜町,33.295451,131.501727,35556.8328143893
三保郵便局,大分県,中津市,大字福島,33.564393,131.238434,10550.3205990953
中津一ツ松郵便局,大分県,中津市,大字牛神,33.59575,131.204187,25429.2163215962
中津沖代郵便局,大分県,中津市,沖代町２丁目,33.587056,131.19591,27208.4588273062
中津栄町郵便局,大分県,中津市,丸山町,33.59516,131.182532,25954.8812314495
福沢通り郵便局,大分県,中津市,,33.605339,131.188408,25186.8740624627
今津郵便局,大分県,中津市,大字今津,33.575781,131.265514,8302.62775815772
真坂郵便局,大分県,中津市,三光土田,33.533227,131.179329,6555.87777563102
深秣郵便局,大分県,中津市,三光上秣,33.531647,131.24624,5824.94750800522
三光郵便局,大分県,中津市,三光成恒,33.542978,131.210326,10239.4105566778
山国郵便局,大分県,中津市,山国町宇曽,33.403378,131.041761,4267.71923480861
溝部郵便局,大分県,中津市,山国町草本,33.43289107242598,130.99924307170102,4323.91007120832
中摩郵便局,大分県,中津市,山国町宇曽,33.4051,131.061787,4256.40382488324
槻木郵便局,大分県,中津市,山国町槻木,33.45451,130.986265,4218.19751958925
小祝簡易郵便局,大分県,中津市,小祝,33.611840907529135,131.18418892684988,18059.5321143028
中津宮永郵便局,大分県,中津市,大字上宮永,33.58996248668119,131.18639621378722,24955.7690225416
中津新魚町郵便局,大分県,中津市,丸山町,33.602109,131.182244,24053.769058402
如水郵便局,大分県,中津市,大字是則,33.586807,131.239406,12547.0362727332
大貞郵便局,大分県,中津市,大字大貞,33.570114,131.211964,20390.5417216335
中津郵便局,大分県,中津市,蛭子町１丁目,33.600082,131.192299,25186.8740624627
中津豊後町郵便局,大分県,中津市,大字島田,33.605054,131.19266,25186.8740624627
屋形簡易郵便局,大分県,中津市,本耶馬渓町東屋形,33.480161,131.215351,3879.27927089709
西谷郵便局,大分県,中津市,本耶馬渓町西谷,33.422545,131.182443,3466.0284512555
跡田簡易郵便局,大分県,中津市,本耶馬渓町跡田,33.480179,131.176747,4204.54069132249
上津郵便局,大分県,中津市,本耶馬渓町折元,33.45607,131.185692,3841.97420377394
羅漢寺郵便局,大分県,中津市,本耶馬渓町曽木,33.492427,131.168498,4948.88124599849
東谷簡易郵便局,大分県,中津市,本耶馬渓町東谷,33.443905,131.211135,3558.46056488124
耶馬渓郵便局,大分県,中津市,本耶馬渓町樋田,33.504193,131.173345,4991.77758334006
鶴居郵便局,大分県,中津市,大字万田,33.575334,131.185689,21607.5156738535
中津万田簡易郵便局,大分県,中津市,大字万田,33.581973,131.184174,21607.5156738535
山移郵便局,大分県,中津市,耶馬渓町山移,33.412657,131.157945,3546.01180015098
下郷郵便局,大分県,中津市,耶馬渓町宮園,33.428765,131.098588,3942.23669514211
柿坂郵便局,大分県,中津市,耶馬渓町栃木,33.453041,131.11442,4012.51692236982
平田郵便局,大分県,中津市,耶馬渓町戸原,33.469614,131.148,4254.59772156133
深耶馬溪簡易郵便局,大分県,中津市,耶馬渓町深耶馬,33.373549,131.196762,3223.9895201689
津民郵便局,大分県,中津市,耶馬渓町中畑,33.477759,131.081672,3955.45609248869
日田隈町郵便局,大分県,日田市,隈１丁目,33.312331,130.932411,23479.5505080867
日田三芳郵便局,大分県,日田市,大字日高,33.304248,130.948216,18098.0454968035
日田郵便局,大分県,日田市,三本松２丁目,33.320996,130.930439,24596.9770764387
日田天神郵便局,大分県,日田市,大字渡里,33.340266077845214,130.9405474784897,18487.3825583686
日田小野郵便局,大分県,日田市,大字小野,33.39266491325381,130.9411713631102,5105.4706037726
雉谷簡易郵便局,大分県,日田市,上津江町上野田,33.056465,130.98733,3548.63998295697
上津江郵便局,大分県,日田市,上津江町川原,33.087852,130.987274,3568.08445566083
都留簡易郵便局,大分県,日田市,上津江町川原,33.083962,130.944999,3652.99505869826
日田石井郵便局,大分県,日田市,大字石井,33.31120404243261,130.90928675358506,12543.43242507
日田高瀬郵便局,大分県,日田市,川原町,33.306706938746366,130.9334588116037,17772.6373206433
前津江郵便局,大分県,日田市,前津江町大野,33.210562,130.917026,4275.33141318812
鎌手郵便局,大分県,日田市,大山町東大山字小五馬,33.229145,130.981465,4387.09467279183
大山郵便局,大分県,日田市,大山町西大山字中川原,33.259724,130.96216,5641.69717593946
大鶴郵便局,大分県,日田市,大字大肥,33.36974,130.887886,6509.72542004838
日田田島郵便局,大分県,日田市,淡窓１丁目,33.323108,130.940577,24969.5354985652
日田竹田郵便局,大分県,日田市,竹田新町,33.311609,130.936633,23479.5505080867
鯛生郵便局,大分県,日田市,中津江村合瀬,33.13329,130.881919,3952.91864928996
津江郵便局,大分県,日田市,中津江村栃野,33.134654,130.963469,3655.02550954919
五馬郵便局,大分県,日田市,天瀬町五馬市,33.230229,131.01624,4349.13883721381
中川郵便局,大分県,日田市,天瀬町馬原,33.281585,131.0081,5105.3997006239
天ヶ瀬郵便局,大分県,日田市,天瀬町桜竹,33.254754,131.018794,4662.2986578032
出口簡易郵便局,大分県,日田市,天瀬町出口,33.203592,131.014713,3838.52627323058
女子畑簡易郵便局（一時閉鎖）,大分県,日田市,天瀬町女子畑,33.282735,130.978283,5628.48306162161
馬原郵便局,大分県,日田市,天瀬町馬原,33.286029,131.007072,5122.07223117061
日田東有田郵便局,大分県,日田市,大字西有田,33.33060041152267,130.98019989863178,7393.99228817595
三花郵便局,大分県,日田市,大字西有田,33.361215,130.959186,7481.28868234443
日田豆田郵便局,大分県,日田市,豆田町,33.326135,130.936911,23747.3805738807
夜明郵便局,大分県,日田市,大字川下,33.320105,130.865333,6735.91178238659
日田光岡郵便局,大分県,日田市,大字渡里,33.327969788557695,130.9209030143402,19621.5957545404
西有田郵便局,大分県,日田市,大字西有田,33.333024,130.966158,10246.2799920126
佐伯上岡簡易郵便局,大分県,佐伯市,大字稲垣,32.96199891306618,131.86236562123378,8096.72433199527
小野市郵便局,大分県,佐伯市,大字小野市,32.856029,131.631391,2164.08399951982
宇目千束郵便局,大分県,佐伯市,大字千束,32.854252,131.678665,2368.42365520598
宇目郵便局,大分県,佐伯市,大字塩見園,32.843351,131.716559,1851.8838606331
木浦鉱山郵便局,大分県,佐伯市,大字木浦鉱山,32.824803,131.545978,1769.6802940925
佐伯駅前郵便局,大分県,佐伯市,駅前２丁目,32.972718,131.904448,13709.6447171125
蒲江郵便局,大分県,佐伯市,大字蒲江浦,32.800626,131.926008,3146.3361343699
丸市尾郵便局,大分県,佐伯市,大字丸市尾浦,32.79141,131.875093,1903.33131858835
森崎簡易郵便局,大分県,佐伯市,大字森崎浦,32.805457,131.88951,2163.78937781654
西野浦郵便局,大分県,佐伯市,大字西野浦,32.826206,131.983223,2250.04038542189
下入津郵便局,大分県,佐伯市,大字竹野浦河内,32.816348,131.961894,2059.08905352794
楠本簡易郵便局,大分県,佐伯市,大字楠本浦,32.835901,131.941728,1953.21723465836
尾浦簡易郵便局,大分県,佐伯市,大字畑野浦,32.86526,131.972001,2114.13751192806
畑野浦郵便局,大分県,佐伯市,大字畑野浦,32.85951,131.947448,2309.51810251447
大入島郵便局,大分県,佐伯市,大字片神浦,32.997722,131.923479,4621.77974593395
下堅田郵便局,大分県,佐伯市,大字長良,32.925111,131.874813,6295.39071265906
海崎郵便局,大分県,佐伯市,大字霞ケ浦,33.001472,131.892123,5320.25524123503
上浦郵便局,大分県,佐伯市,大字津井浦,33.052686,131.929565,3199.91250081639
新女島簡易郵便局,大分県,佐伯市,,32.954109,131.90942,15364.9861777405
青山簡易郵便局,大分県,佐伯市,大字長谷,32.884939,131.871317,2538.94206043645
佐伯大手前郵便局,大分県,佐伯市,大手町３丁目,32.956386,131.892949,17451.313536165
池船郵便局,大分県,佐伯市,池船町,32.95247,131.894866,17451.313536165
佐伯郵便局,大分県,佐伯市,中村東町,32.96183,131.901782,18399.0904638237
上堅田簡易郵便局,大分県,佐伯市,大字池田,32.93956491518985,131.8833180013158,8455.79338996717
横川簡易郵便局,大分県,佐伯市,大字横川,32.884029,131.740632,2208.64700255559
直見簡易郵便局,大分県,佐伯市,大字下直見,32.927915,131.806624,3084.39725804732
川原木簡易郵便局,大分県,佐伯市,大字仁田原,32.879391,131.75727,2204.17819479869
直川郵便局,大分県,佐伯市,大字上直見,32.895973,131.779239,2434.56652593844
鶴岡郵便局,大分県,佐伯市,鶴岡町３丁目,32.959719,131.876923,13455.4660210534
中浦郵便局,大分県,佐伯市,大字羽出浦,32.943919,131.999523,2250.68873164243
吹簡易郵便局,大分県,佐伯市,大字吹浦,32.952694,131.940279,4717.78388427984
豊後大島郵便局,大分県,佐伯市,大字大島,32.966447,132.073626,1338.42024301967
東中浦郵便局,大分県,佐伯市,大字丹賀浦,32.948531,132.050768,1442.56678278243
鶴見郵便局,大分県,佐伯市,大字地松浦,32.944473,131.960777,3874.27623951686
佐伯鶴望簡易郵便局,大分県,佐伯市,大字鶴望,32.96656200294945,131.88058994198133,13455.4660210534
佐伯野岡郵便局,大分県,佐伯市,東町,32.965941,131.90642,18399.0904638237
西上浦郵便局,大分県,佐伯市,大字二栄,33.021436,131.91214,4032.64415553504
米水津郵便局,大分県,佐伯市,大字浦代浦,32.922612,131.975708,2595.86419434954
色利郵便局,大分県,佐伯市,大字色利浦,32.893758,131.984277,2318.21066062669
因尾郵便局,大分県,佐伯市,大字堂ノ間,32.926746,131.711688,2208.26623721097
本匠郵便局,大分県,佐伯市,大字波寄,32.950912,131.78932,3236.91460859394
木立郵便局,大分県,佐伯市,大字木立,32.918071,131.929234,3931.62571155326
床木簡易郵便局,大分県,佐伯市,大字海崎,32.998492,131.863895,5425.97380705649
弥生郵便局,大分県,佐伯市,大字上小倉,32.968939,131.838648,7322.90300715387
植松郵便局,大分県,佐伯市,大字大坂本,32.982049,131.848091,6586.30463224606
切畑郵便局,大分県,佐伯市,大字門田,32.951913,131.840871,6546.76758190334
熊崎郵便局,大分県,臼杵市,大字井村,33.136698,131.78787,12780.2560262376
臼杵辻郵便局,大分県,臼杵市,大字臼杵,33.12021,131.800866,12681.3693639248
臼杵郵便局,大分県,臼杵市,大字臼杵,33.121923,131.806313,12681.3693639248
鍛治簡易郵便局,大分県,臼杵市,大字吉小野,33.112838,131.727459,5397.24426653878
江無田簡易郵便局,大分県,臼杵市,大字江無田,33.126145783770745,131.78870557887115,15596.4230581132
佐志生郵便局,大分県,臼杵市,大字佐志生,33.176945,131.828504,4071.99699113783
臼杵海辺郵便局,大分県,臼杵市,大字諏訪,33.132699,131.803313,13518.7196917843
南津留郵便局,大分県,臼杵市,大字掻懐,33.093424,131.757512,5711.17251699419
大泊郵便局,大分県,臼杵市,大字大泊,33.114786,131.840949,4719.01792722274
下ノ江郵便局,大分県,臼杵市,大字下ノ江,33.156558,131.817533,5790.2717139351
臼杵平清水郵便局,大分県,臼杵市,大字福良,33.115701,131.793731,14088.2626590914
臼杵上北簡易郵便局,大分県,臼杵市,大字末広,33.13932391425518,131.75854923470635,6677.04520919783
豊後田野郵便局,大分県,臼杵市,野津町大字山頭,33.037789,131.71349,4105.23746624791
南野津郵便局,大分県,臼杵市,野津町大字吉田,33.015956,131.66655,3592.05135737218
川登郵便局,大分県,臼杵市,野津町大字清水原,33.006598,131.716741,3138.59241123922
野津郵便局,大分県,臼杵市,野津町大字野津市,33.045232,131.693046,4932.68464199596
望月簡易郵便局,大分県,臼杵市,大字前田,33.108698,131.775572,12889.4978356342
津久見青江郵便局,大分県,津久見市,セメント町,33.077429,131.856477,8155.8100806938
落浦郵便局,大分県,津久見市,大字四浦,33.068655,131.989743,1849.11348451758
上宮本簡易郵便局,大分県,津久見市,上宮本町,33.069758,131.859306,10172.6281531494
津久見千怒簡易郵便局,大分県,津久見市,大字千怒,33.071528975185245,131.8889346662281,4882.7563303487
津久見郵便局,大分県,津久見市,中央町,33.074763,131.864809,8711.31919613328
津久見徳浦郵便局,大分県,津久見市,徳浦宮町,33.09115,131.852088,8270.41997332679
保戸島郵便局,大分県,津久見市,大字保戸島,33.103643,132.006971,1552.71929025988
日代郵便局,大分県,津久見市,大字網代,33.066756,131.918483,3669.50174978023
柏原郵便局,大分県,竹田市,荻町高練木,32.904888,131.302373,2949.96629873108
荻郵便局,大分県,竹田市,荻町馬場,32.923289,131.299056,3573.75349144796
都野郵便局,大分県,竹田市,久住町大字仏原,33.055416,131.326966,3252.74539637588
久住郵便局,大分県,竹田市,大字小川,33.01953,131.29472,3177.81667803231
白丹簡易郵便局,大分県,竹田市,久住町大字白丹,33.009373,131.264349,3093.50394000673
玉来郵便局,大分県,竹田市,大字玉来,32.952982,131.374688,5190.49003531243
岡本郵便局,大分県,竹田市,大字三宅,32.99309,131.412434,3759.90642796203
宮砥郵便局,大分県,竹田市,大字次倉,32.894237,131.329388,2635.41157778645
竹田明治郵便局,大分県,竹田市,大字枝,32.989851,131.385089,4143.11058955506
嫗岳郵便局,大分県,竹田市,大字中角,32.893044,131.357608,2514.78092022107
菅生郵便局,大分県,竹田市,大字菅生,32.95667,131.280966,3025.5674485983
宮城簡易郵便局,大分県,竹田市,大字炭竃,32.986144,131.312109,3103.23755893233
竹田駅前郵便局,大分県,竹田市,大字竹田町,32.96978134027554,131.39103126075514,5577.61062037855
竹田郵便局,大分県,竹田市,大字竹田町,32.968564,131.393575,5577.61062037855
下竹田郵便局,大分県,竹田市,直入町大字上田北,33.114717,131.413458,3490.80422147513
長湯郵便局,大分県,竹田市,直入町大字長湯,33.071679,131.384179,3518.08460809148
城原郵便局,大分県,竹田市,大字米納,32.990088,131.338218,3376.56286565508
入田郵便局,大分県,竹田市,大字吉田,32.936095,131.385604,4130.46532838388
臼野郵便局,大分県,豊後高田市,臼野,33.63319518725615,131.48292546349163,3140.44513539851
高田玉津郵便局,大分県,豊後高田市,浜町,33.560954,131.445112,9342.30241786452
豊後高田郵便局,大分県,豊後高田市,是永町,33.55607,131.441599,9924.30772528166
三浦郵便局,大分県,豊後高田市,堅来,33.644668,131.497022,2901.97505632332
呉崎郵便局,大分県,豊後高田市,新栄,33.578174,131.447611,6694.31063269328
香々地郵便局,大分県,豊後高田市,香々地,33.667814,131.523494,2774.00818760005
上香々地郵便局,大分県,豊後高田市,上香々地,33.628483,131.540666,2458.76961123433
上真玉簡易郵便局,大分県,豊後高田市,城前,33.59331628433161,131.5100217242468,3002.96659652248
都甲郵便局,大分県,豊後高田市,新城,33.559177,131.529161,2950.93904202291
豊後河内郵便局,大分県,豊後高田市,森,33.546899,131.46875,5564.89795665949
草地簡易郵便局,大分県,豊後高田市,草地,33.575241504937715,131.46174226075513,5740.7737119254
西都甲簡易郵便局,大分県,豊後高田市,築地,33.56404721179127,131.50814213511612,3313.58580768505
真玉郵便局,大分県,豊後高田市,西真玉,33.609434,131.478274,3615.98039351935
田染郵便局,大分県,豊後高田市,田染真中,33.515088,131.517173,3473.38580173743
美和簡易郵便局,大分県,豊後高田市,鼎,33.557371,131.473193,5728.45144292359
杵築本町郵便局,大分県,杵築市,大字杵築,33.41597,131.621519,11682.9770573056
北杵築郵便局,大分県,杵築市,大字溝井,33.43619,131.58977,5879.26752137794
下簡易郵便局（一時閉鎖）,大分県,杵築市,大字下字金水,33.472269,131.495334,4063.33134559763
上村郵便局,大分県,杵築市,大字久木野尾字コモダ,33.4238,131.445034,4050.57811519514
東山香郵便局,大分県,杵築市,大字広瀬字田居,33.438217,131.522528,5175.69940439882
山浦郵便局,大分県,杵築市,大字山浦字浦篠,33.457519,131.441255,3719.20150355472
山香郵便局,大分県,杵築市,大字内河野字下市,33.452326,131.50153,5997.35545229953
立石郵便局,大分県,杵築市,大字立石字町下,33.482907,131.472862,3803.36935186355
守江郵便局,大分県,杵築市,大字守江,33.423727,131.661383,5376.95335093648
奈多八幡簡易郵便局,大分県,杵築市,大字狩宿,33.425166,131.70393,3813.70091224967
大田郵便局,大分県,杵築市,大字石丸,33.494783,131.556552,3252.97030630694
朝田簡易郵便局,大分県,杵築市,大字俣水,33.487408,131.590269,3141.96235201986
杵築大内簡易郵便局,大分県,杵築市,大字杵築,33.42595894869516,131.63144636245232,7959.40017444163
杵築郵便局,大分県,杵築市,大字南杵築,33.417053,131.612242,9963.02710138241
八坂郵便局,大分県,杵築市,大字本庄,33.413247,131.58791,8908.38575862252
杵築東郵便局,大分県,杵築市,大字片野,33.40711,131.631019,7074.56453894099
安心院郵便局,大分県,宇佐市,安心院町折敷田,33.43688,131.354123,4620.57620940856
佐田郵便局,大分県,宇佐市,安心院町佐田,33.447602,131.39137,3923.01752593618
竜王郵便局,大分県,宇佐市,安心院町森,33.404085,131.343898,4175.8850455092
深見郵便局,大分県,宇佐市,安心院町矢畑,33.389191,131.34054,3927.08841408435
津房郵便局,大分県,宇佐市,安心院町六郎丸,33.39382,131.39218,4286.7233358192
南院内郵便局,大分県,宇佐市,院内町下恵良,33.385607,131.29399,3576.28703914371
香下郵便局,大分県,宇佐市,院内町小坂,33.473467,131.3283,4345.44928404813
院内郵便局,大分県,宇佐市,院内町斉藤,33.402281,131.308359,3756.41862242467
高並簡易郵便局,大分県,宇佐市,院内町下船木,33.439674,131.304064,3954.22591315569
東院内郵便局,大分県,宇佐市,院内町副,33.43095944959666,131.32395094165236,4207.12465640975
糸口郵便局,大分県,宇佐市,大字下時枝,33.555727,131.30726,8252.81618687783
天津郵便局,大分県,宇佐市,大字下庄,33.576135525503325,131.29238492303588,6520.17536840475
四日市郵便局,大分県,宇佐市,大字石田,33.535509,131.329593,14219.775166099
封戸郵便局,大分県,宇佐市,大字横田,33.5389,131.419698,6385.64894167611
北馬城郵便局,大分県,宇佐市,大字橋津,33.531039,131.399644,6457.21137944015
柳ヶ浦郵便局,大分県,宇佐市,大字江須賀,33.557469,131.366576,9450.33985275461
江須賀簡易郵便局,大分県,宇佐市,貴船町１丁目,33.566979,131.368116,8469.06902964044
高森簡易郵便局,大分県,宇佐市,大字高森,33.54460808583359,131.36665231877384,8562.85431610584
和間郵便局,大分県,宇佐市,大字北鶴田新田,33.55887,131.409615,6710.98182216194
横山郵便局,大分県,宇佐市,大字上元重,33.517844,131.300568,7617.56677787344
西馬城郵便局,大分県,宇佐市,大字下矢部,33.50382,131.366036,5100.47544971603
乙女郵便局,大分県,宇佐市,大字尾永井,33.563145,131.324064,8096.41966569153
西屋敷簡易郵便局,大分県,宇佐市,大字西屋敷,33.503086051128605,131.42933879759246,3987.58821356211
長峰郵便局,大分県,宇佐市,大字大根川,33.54584,131.281208,7278.88165366171
豊川郵便局,大分県,宇佐市,大字中原,33.518595,131.33651,13293.9075094539
長洲中浜簡易郵便局,大分県,宇佐市,大字長洲,33.574408,131.374086,8469.06902964044
長洲郵便局,大分県,宇佐市,大字長洲,33.569007,131.377005,8671.02684980009
宇佐郵便局,大分県,宇佐市,大字北宇佐,33.528039,131.370562,7352.26151502001
樋田簡易郵便局,大分県,宇佐市,大字樋田,33.525518,131.342796,13485.4706440892
宇佐駅館郵便局,大分県,宇佐市,大字上田,33.530785,131.347936,13485.4706440892
麻生郵便局,大分県,宇佐市,大字黒,33.486013,131.277266,4120.27662717209
犬飼郵便局,大分県,豊後大野市,犬飼町犬飼,33.072811,131.63505,5501.40723129491
長谷郵便局,大分県,豊後大野市,犬飼町黒松,33.070422,131.589554,4430.44569820941
谷川原簡易郵便局,大分県,豊後大野市,三重町芦刈,32.992291,131.612166,7908.71897807054
三重郵便局,大分県,豊後大野市,三重町市場,32.981263,131.584641,7900.00712549135
菅尾駅前郵便局,大分県,豊後大野市,三重町菅生,33.013511,131.617776,4841.12339566447
赤嶺簡易郵便局,大分県,豊後大野市,三重町赤嶺,32.984428031511804,131.5984127235889,9305.87996195259
久部簡易郵便局,大分県,豊後大野市,三重町中津留,32.90062967759667,131.54346329824597,2211.81439924066
西泉簡易郵便局,大分県,豊後大野市,三重町西泉,33.000239700014816,131.5775978839626,5475.68198936669
白山郵便局,大分県,豊後大野市,清川町伏野,32.933128,131.530564,2636.57372205014
本城簡易郵便局,大分県,豊後大野市,三重町玉田,32.974041,131.568199,6242.27237913107
下自在簡易郵便局,大分県,豊後大野市,緒方町下自在,32.974698,131.468171,4472.35334086494
原尻簡易郵便局,大分県,豊後大野市,緒方町原尻,32.959344,131.451902,3774.13668876369
小富士郵便局,大分県,豊後大野市,緒方町小宛,32.955511,131.428238,3336.6012438745
長谷川郵便局,大分県,豊後大野市,緒方町栗生,32.898795,131.440405,2304.75482456299
上緒方郵便局,大分県,豊後大野市,緒方町徳田,32.924653,131.431433,2743.07965883921
緒方郵便局,大分県,豊後大野市,緒方町馬場,32.969899,131.473873,4472.35334086494
馬背畑簡易郵便局,大分県,豊後大野市,緒方町平石,32.933848,131.476734,2941.89394370206
豊後清川簡易郵便局,大分県,豊後大野市,清川町砂田,32.97304,131.52173,3446.34647562522
清川郵便局,大分県,豊後大野市,清川町砂田,32.967762,131.511175,3967.26713031846
合川郵便局,大分県,豊後大野市,清川町六種,32.942008,131.496635,3201.76773921793
高畑簡易郵便局,大分県,豊後大野市,千歳町下山,33.028453,131.594611,4668.62037746764
千歳郵便局,大分県,豊後大野市,千歳町新殿,33.044396,131.596999,4569.4006599138
菅田郵便局,大分県,豊後大野市,大野町杉園,33.041035,131.535032,3839.26354713762
大野郵便局,大分県,豊後大野市,大野町屋原,33.040283,131.499925,4314.11348056277
矢田簡易郵便局,大分県,豊後大野市,大野町矢田,32.994287,131.51373,3494.57138602115
市万田郵便局,大分県,豊後大野市,大野町大原,33.017339,131.478622,3681.96043924342
朝地郵便局,大分県,豊後大野市,朝地町坪泉,33.005811,131.430932,3656.49285452393
綿田簡易郵便局,大分県,豊後大野市,朝地町綿田,33.024598,131.410374,3135.800885353
温見郵便局,大分県,豊後大野市,朝地町梨小,33.071306,131.429819,3159.39512466133
阿蘇野簡易郵便局,大分県,由布市,大字阿蘇野,33.130382,131.347269,3070.13474688334
堺郵便局,大分県,由布市,大字小挾間,33.23177,131.447045,6298.24062132528
庄内駅前郵便局,大分県,由布市,大字庄内原,33.183932,131.402485,5337.42695814015
阿南郵便局,大分県,由布市,大字東長宝,33.185405,131.450315,6839.99354547851
庄内郵便局,大分県,由布市,大字畑田,33.186793,131.428955,6180.19999135723
下川簡易郵便局,大分県,由布市,大字下湯平,33.19757897815158,131.35406430377577,3871.13216386558
由布院郵便局,大分県,由布市,大字川北,33.265258,131.354488,8702.60993270694
東石松簡易郵便局,大分県,由布市,大字川南,33.256203,131.35946,7989.87343730275
南由布郵便局,大分県,由布市,大字中川,33.241816,131.335268,5032.87915706679
湯平郵便局,大分県,由布市,大字湯平,33.195373,131.327419,3469.56820317109
大分医大ヶ丘簡易郵便局,大分県,由布市,医大ケ丘１丁目,33.210187,131.534518,19467.7628976523
谷簡易郵便局,大分県,由布市,大字小野,33.183378,131.484284,8116.96303360478
石城川郵便局,大分県,由布市,大字三船,33.221938,131.524091,15515.9478557761
挾間郵便局,大分県,由布市,大字挾間,33.199877,131.513475,18587.6707773436
安岐港郵便局,大分県,国東市,下原,33.46308,131.721178,5739.91763541094
掛樋簡易郵便局,大分県,国東市,掛樋,33.476909,131.655431,3313.68658749691
安岐郵便局,大分県,国東市,中園,33.469106,131.697234,5017.98984365484
朝来郵便局,大分県,国東市,朝来,33.501324,131.6211,2961.97760403569
両子郵便局,大分県,国東市,富清,33.521997,131.629445,2785.12600030105
明治簡易郵便局,大分県,国東市,明治,33.525137,131.605854,2712.875510425
国見郵便局,大分県,国東市,伊美,33.681918,131.596985,2857.46447389412
熊毛郵便局,大分県,国東市,岐部,33.666316,131.626022,2453.13962608081
竹田津郵便局,大分県,国東市,竹田津,33.670724,131.563126,2611.29286184428
野田簡易郵便局,大分県,国東市,櫛海,33.663644,131.587318,2739.50842257692
豊崎郵便局,大分県,国東市,岩屋,33.56607,131.688426,2941.87646841547
岩戸寺簡易郵便局,大分県,国東市,岩戸寺,33.619757,131.625513,2119.68609433845
上国崎郵便局,大分県,国東市,見地,33.591372,131.666899,2521.24659033542
旭日郵便局,大分県,国東市,重藤,33.526963,131.726397,3447.97690074371
国東小原簡易郵便局,大分県,国東市,鶴川,33.5496,131.735146,4274.75870295937
国東郵便局,大分県,国東市,鶴川,33.558905,131.737479,4888.3699064585
田深郵便局,大分県,国東市,田深,33.567488,131.729534,4383.20803378458
来浦郵便局,大分県,国東市,浜,33.637534,131.679425,2123.65298237171
富来郵便局,大分県,国東市,富来浦,33.601234,131.712228,2870.13380456706
東堅来簡易郵便局,大分県,国東市,富来浦,33.611125426843586,131.69972456650459,2506.05229942565
国東北江簡易郵便局,大分県,国東市,北江,33.580530471695205,131.72895858413418,3884.83752298041
武蔵郵便局,大分県,国東市,古市,33.500632,131.724287,4763.51842123114
中武蔵郵便局,大分県,国東市,麻田,33.522185,131.6834,2925.83865431304
姫島郵便局,大分県,姫島村,,33.72532700663739,131.6479378846205,2489.96068920594
日出郵便局,大分県,日出町,,33.368863,131.528812,14264.7595304147
真那井簡易郵便局,大分県,日出町,大字真那井,33.377168,131.596937,6904.43390661998
川崎郵便局,大分県,日出町,大字川崎,33.36728,131.545999,14456.6375430429
大神郵便局,大分県,日出町,大字大神,33.370252,131.573996,9753.93077355319
日出深江簡易郵便局,大分県,日出町,大字大神,33.354485,131.581314,7515.22274676959
日出藤原郵便局,大分県,日出町,,33.380961,131.539911,13097.6083563649
豊岡郵便局,大分県,日出町,大字豊岡,33.362613,131.500113,12047.0010187325
恵良郵便局,大分県,九重町,大字恵良,33.254862,131.175,5451.9564258214
野上郵便局,大分県,九重町,大字右田,33.22626,131.209267,4084.04710361508
宝泉寺郵便局,大分県,九重町,大字町田,33.194678,131.160482,3706.49903534307
南山田郵便局,大分県,九重町,大字引治,33.21576,131.173368,3985.39163610513
飯田高原郵便局,大分県,九重町,大字田野,33.15835,131.220727,3173.15507369454
古後簡易郵便局,大分県,玖珠町,大字古後,33.36816,131.093674,3679.24572756608
大野原簡易郵便局,大分県,玖珠町,大字四日市,33.298613,131.099842,4541.62087641701
北山田郵便局,大分県,玖珠町,大字戸畑,33.27992,131.09487,4518.49460116223
山浦簡易郵便局,大分県,玖珠町,大字山浦,33.236618,131.093011,3581.62800374782
小田簡易郵便局（一時閉鎖）,大分県,玖珠町,大字小田,33.273227,131.120924,4881.15804139356
森郵便局,大分県,玖珠町,大字帆足,33.300503,131.160531,5530.39717041505
豊後八幡郵便局,大分県,玖珠町,大字綾垣,33.313473,131.139449,4790.19871887325
玖珠大隈簡易郵便局,大分県,玖珠町,大字大隈,33.267922,131.165283,7284.28956432978
塚脇郵便局,大分県,玖珠町,大字塚脇,33.277199,131.151727,8823.00707259454
小野原簡易郵便局,大分県,玖珠町,大字日出生,33.326376609011305,131.2845088266018,3194.57347028997
玖珠郵便局,大分県,玖珠町,大字塚脇,33.282227,131.158782,8823.00707259454
熊本安政郵便局,熊本県,中央区,手取本町,32.801844,130.710219,97426.8459668174
熊本京町郵便局,熊本県,中央区,京町１丁目,32.812066,130.70533,80616.8592660242
熊本京町本町郵便局,熊本県,中央区,京町本丁,32.817649,130.705941,76339.3353591693
熊本九品寺一郵便局,熊本県,中央区,九品寺１丁目,32.799843,130.716104,103602.576411058
九品寺東郵便局,熊本県,中央区,九品寺３丁目,32.792997,130.717289,103602.576411058
熊本迎町郵便局,熊本県,中央区,迎町１丁目,32.79179,130.702775,90345.3825391309
熊本国府二郵便局,熊本県,中央区,国府４丁目,32.78704,130.727051,100678.454965705
熊本黒髪二郵便局,熊本県,中央区,黒髪２丁目,32.813816,130.724606,87790.6913899778
熊本黒髪六郵便局,熊本県,中央区,黒髪６丁目,32.814843,130.737911,91750.4121090072
熊本細工町郵便局,熊本県,中央区,細工町４丁目,32.794067,130.694498,79724.1832672787
熊本市役所内郵便局,熊本県,中央区,手取本町,32.803427,130.707997,97426.8459668174
熊本出水郵便局,熊本県,東区,出水,32.783874,130.733384,100678.454965705
長溝簡易郵便局,熊本県,南区,田迎６丁目,32.779331,130.718793,89648.601391774
熊本上水前寺郵便局,熊本県,中央区,上水前寺１丁目,32.796201,130.743451,104848.6615806
熊本城東郵便局,熊本県,中央区,手取本町,32.804205,130.70908,97426.8459668174
熊本新屋敷郵便局,熊本県,中央区,新屋敷３丁目,32.807538,130.72394,98170.8567929295
熊本新市街郵便局,熊本県,中央区,新市街,32.798484,130.707247,90345.3825391309
熊本新大江郵便局,熊本県,中央区,新大江２丁目,32.801433964039894,130.73218255084862,104908.816821229
熊本新町郵便局,熊本県,中央区,新町１丁目,32.80365,130.697248,74789.3068884659
熊本中央郵便局,熊本県,中央区,新町２丁目,32.799678,130.699553,79724.1832672787
水前寺駅前郵便局,熊本県,中央区,水前寺１丁目,32.796539,130.730301,100732.056525981
熊本北水前寺郵便局,熊本県,中央区,水前寺３丁目,32.798123,130.736328,100732.056525981
熊本県庁内郵便局,熊本県,中央区,水前寺６丁目,32.790374,130.741134,94543.1846152564
熊本水前寺公園郵便局,熊本県,中央区,国府１丁目,32.791484,130.730745,100678.454965705
熊本上通郵便局,熊本県,中央区,上通町,32.804233,130.71258,98170.8567929295
熊本西子飼郵便局,熊本県,中央区,妙体寺町,32.811418,130.717417,87790.6913899778
熊本帯山郵便局,熊本県,東区,帯山,32.806622,130.750522,98344.9054818527
熊本北帯山郵便局,熊本県,中央区,帯山４丁目,32.803706,130.748577,98656.6727505236
熊本大江六郵便局,熊本県,中央区,大江６丁目,32.796623,130.725496,100732.056525981
熊本坪井五郵便局,熊本県,中央区,坪井５丁目,32.813732,130.711885,80616.8592660242
熊本保田窪郵便局,熊本県,中央区,渡鹿３丁目,32.80565,130.739078,98656.6727505236
熊本渡鹿本町簡易郵便局,熊本県,中央区,渡鹿４丁目,32.809261,130.732773,91354.2886725773
南熊本駅通郵便局,熊本県,中央区,南熊本３丁目,32.78779,130.710719,93221.55318727
熊本南千反畑郵便局,熊本県,中央区,南千反畑町,32.806899,130.714941,98170.8567929295
熊本萩原郵便局,熊本県,中央区,萩原町,32.782569,130.708942,83548.3013044354
熊本八王寺郵便局,熊本県,中央区,八王寺町,32.78312,130.715617,89648.601391774
熊本米屋町郵便局,熊本県,中央区,米屋町２丁目,32.795262,130.698053,79724.1832672787
熊本本山郵便局,熊本県,中央区,本山４丁目,32.788012,130.697498,80502.9880059323
熊本本荘町郵便局,熊本県,中央区,本荘６丁目,32.793373,130.708497,90345.3825391309
熊本東海学園前郵便局,熊本県,東区,渡鹿８丁目,32.812769,130.74307288396264,91750.4121090072
熊本下南部郵便局,熊本県,東区,下南部３丁目,32.822815,130.76066,82015.6977897148
花立郵便局,熊本県,東区,花立３丁目,32.784625,130.771993,84019.3350169463
熊本中の瀬簡易郵便局,熊本県,南区,良町４丁目,32.753682,130.729524,44056.0681546207
弓削簡易郵便局,熊本県,東区,弓削町,32.84749199035378,130.7956513767925,40331.6180358696
熊本東郵便局,熊本県,東区,錦ケ丘,32.789124,130.753688,93082.5664285948
熊本鉄砲塚郵便局,熊本県,東区,月出２丁目,32.802456,130.76091,98344.9054818527
熊本健軍三郵便局,熊本県,東区,若葉１丁目,32.779181,130.760938,78310.962621965
熊本健軍郵便局,熊本県,東区,湖東１丁目,32.782334,130.748233,84266.2280217246
健軍自衛隊前簡易郵便局,熊本県,東区,健軍本町,32.786109,130.7596,93082.5664285948
熊本戸島団地郵便局,熊本県,東区,戸島西２丁目,32.811608,130.784582,70129.9694076572
託麻郵便局,熊本県,東区,御領４丁目,32.82476,130.774131,77541.2314264208
熊本江津郵便局,熊本県,中央区,江津,32.777375,130.732884,84826.0579230971
熊本下江津簡易郵便局,熊本県,東区,江津４丁目,32.772893001538684,130.73635631877383,73748.6165100666
熊本佐土原郵便局,熊本県,東区,佐土原１丁目,32.791402,130.771382,84019.3350169463
秋津郵便局,熊本県,東区,桜木１丁目,32.778125,130.77927,58478.4474510819
熊本若葉四郵便局,熊本県,東区,若葉４丁目,32.771626,130.763244,58800.4575054991
秋津レークタウン簡易郵便局,熊本県,東区,秋津町秋田（秋津）,32.76155503208313,130.76719383962626,43965.3581875054
小山戸島郵便局,熊本県,東区,小山４丁目,32.825961,130.792831,43722.1796027502
熊本昭和郵便局,熊本県,東区,昭和町,32.778209,130.769771,74009.8465367882
熊本小峰郵便局,熊本県,東区,新外４丁目,32.800985,130.770326,88760.1894895543
新南部簡易郵便局,熊本県,東区,新南部３丁目,32.81452299505216,130.74702794198132,91750.4121090072
熊本水源一郵便局,熊本県,東区,水源２丁目,32.775792,130.757188,78310.962621965
熊本西原郵便局,熊本県,東区,保田窪５丁目,32.813816,130.754021,93613.5560755565
供合郵便局,熊本県,東区,石原町,32.842814,130.779658,55016.2633951739
熊本長嶺郵便局,熊本県,東区,長嶺南３丁目,32.812483,130.769104,86568.9653059096
尾ノ上郵便局,熊本県,東区,三郎２丁目,32.79754,130.759243,97333.5813588426
熊本横手郵便局,熊本県,西区,横手３丁目,32.8014,130.687582,74789.3068884659
熊本沖新簡易郵便局,熊本県,西区,小島下町,32.775318,130.612782,16733.1653023849
河内塩屋簡易郵便局,熊本県,西区,河内町河内,32.81704320259442,130.59529127641113,11637.1669291766
芳野郵便局,熊本県,西区,河内町岳,32.831397,130.642669,16393.7155281913
河内郵便局,熊本県,西区,河内町船津,32.82898,130.589451,12112.6076583438
本妙寺郵便局,熊本県,西区,花園１丁目,32.813992,130.696467,72073.5898197014
熊本花園簡易郵便局,熊本県,西区,花園５丁目,32.82035012464721,130.69218628943554,62113.3225773833
柿原簡易郵便局,熊本県,西区,花園７丁目,32.82774991821393,130.68743758018687,36156.9043076912
高橋郵便局,熊本県,西区,高橋町１丁目,32.78571,130.65875163754768,36023.2686741502
熊本京町台郵便局,熊本県,西区,出町,32.823926,130.706969,76339.3353591693
くまもと森都心郵便局,熊本県,中央区,細工町５丁目,32.79035696665952,130.69146990935363,80502.9880059323
熊本春日郵便局,熊本県,西区,春日３丁目,32.792129970442836,130.68854569622425,79724.1832672787
小島郵便局,熊本県,西区,小島５丁目,32.778397820737226,130.63917592566744,29436.8623640538
松尾簡易郵便局,熊本県,西区,松尾町上松尾,32.7984,130.610004,12596.2787710941
上熊本郵便局,熊本県,西区,上熊本３丁目,32.823608997321735,130.69988063754766,62113.3225773833
熊本城山簡易郵便局,熊本県,西区,城山半田１丁目,32.777182003270006,130.65912163754768,36997.8472874476
熊本谷尾崎簡易郵便局,熊本県,西区,戸坂町,32.800261,130.673833,39823.4848258573
今新開簡易郵便局,熊本県,西区,小島上町,32.768847,130.636142,21616.9025177307
熊本田崎郵便局,熊本県,西区,田崎町,32.784198984765155,130.6769916955664,64273.5124106789
田崎本町郵便局,熊本県,西区,田崎本町,32.784808953052384,130.6880395071701,80502.9880059323
熊本島崎郵便局,熊本県,西区,島崎４丁目,32.811149,130.686748,51833.3115236662
二本木郵便局,熊本県,西区,二本木３丁目,32.783207,130.691443,77748.6761486577
熊本八島簡易郵便局,熊本県,西区,八島１丁目,32.77893,130.683472,62386.2084197366
奥古閑郵便局,熊本県,南区,海路口町,32.730877,130.621227,13675.4364794892
熊本近見町郵便局,熊本県,南区,近見１丁目,32.768014,130.690221,68002.778990999
熊本野越郵便局,熊本県,南区,南高江４丁目,32.754376,130.692666,48870.629760597
御幸郵便局,熊本県,南区,御幸笛田６丁目,32.759015,130.713636,59891.802315927
護藤簡易郵便局,熊本県,南区,護藤町,32.749543,130.664279,33587.3141029725
熊本平成郵便局,熊本県,南区,江越１丁目,32.776652,130.701165,83548.3013044354
熊本南高江郵便局,熊本県,南区,合志１丁目,32.753699,130.682314,48345.0479863698
八分字郵便局,熊本県,南区,砂原町,32.763653,130.661779,32905.5509812981
熊本出仲間郵便局,熊本県,南区,出仲間１丁目,32.773542,130.712053,75823.4526043023
城南郵便局,熊本県,南区,城南町下宮地,32.70329699852546,130.72879397131962,21533.4527267364
杉上郵便局,熊本県,南区,城南町高,32.72652701146919,130.71515278226548,24867.3562045898
吉野簡易郵便局,熊本県,南区,城南町舞原,32.717805005149835,130.74823121707664,22977.6898080821
千町簡易郵便局,熊本県,南区,城南町千町,32.7299720132473,130.73756240415713,24443.0037979594
六田簡易郵便局,熊本県,南区,城南町六田,32.70859199652566,130.7143173631102,23058.9230277794
鰐瀬郵便局,熊本県,南区,城南町陳内,32.68445100890883,130.7561351447178,14036.845764334
川口郵便局,熊本県,南区,川口町,32.716906,130.626144,15368.948705945
外城簡易郵便局,熊本県,南区,川尻３丁目,32.738294,130.678029,33223.6478157997
銭塘郵便局,熊本県,南区,銭塘町,32.738571,130.644531,19134.5419467948
並建郵便局,熊本県,南区,並建町,32.751876,130.643309,23665.327658682
川尻郵便局,熊本県,南区,川尻１丁目,32.74112902479045,130.6833169856598,33223.6478157997
杉合郵便局,熊本県,南区,富合町廻江,32.72252297072136,130.6761859713196,23935.8256577167
守富郵便局,熊本県,南区,富合町新,32.70751799908604,130.6794590723589,20515.6616471393
富合木原簡易郵便局,熊本県,南区,富合町木原,32.70511099912769,130.70232501434018,18458.1430656125
熊本平田郵便局,熊本県,南区,平田１丁目,32.772736,130.693249,68002.778990999
野口簡易郵便局,熊本県,南区,野口２丁目,32.767622,130.673436,49930.6743051302
熊本田迎郵便局,熊本県,南区,良町２丁目,32.762182,130.72008,59891.802315927
北部郵便局,熊本県,北区,西梶尾町,32.867807,130.704856,30123.0740051666
硯川郵便局,熊本県,北区,硯川町,32.863228,130.688275,28107.0923412345
熊本高平郵便局,熊本県,北区,池田,32.832314,130.710219,63258.4985035884
熊本山室郵便局,熊本県,北区,山室５丁目,32.844091,130.716912,58389.6972027039
熊本室園郵便局,熊本県,北区,清水町大字松崎,32.828231,130.722884,69877.6407283449
鞍掛簡易郵便局,熊本県,北区,植木町鞍掛,32.90459890548,130.67679178292335,20345.7709637759
菱形郵便局,熊本県,北区,植木町円台寺,32.882285492180664,130.6592315918955,16494.0410597829
山東郵便局,熊本県,北区,植木町岩野,32.91339206109806,130.70712415905797,18786.779151073
植木郵便局,熊本県,北区,植木町植木,32.89622893100107,130.69245782528606,23712.0182639389
大和簡易郵便局,熊本県,北区,植木町大和,32.883357350153695,130.67369579016008,19777.5750978827
肥後山本郵便局,熊本県,北区,植木町内,32.93739099213899,130.68232472490465,11697.7469358106
田底郵便局,熊本県,北区,植木町米塚,32.9563869206354,130.72380913169332,12381.4502400807
豊田郵便局,熊本県,北区,植木町豊田,32.940457593924414,130.70638846217585,12892.5880877271
熊本新地郵便局,熊本県,北区,清水新地６丁目,32.852389,130.740842,64506.0000760181
万石簡易郵便局,熊本県,北区,清水万石４丁目,32.834953,130.726801,64645.6050005295
熊本楠郵便局,熊本県,北区,楠４丁目,32.849285,130.757466,65680.4290838213
熊本八景水谷郵便局,熊本県,北区,山室４丁目,32.842091,130.723384,58389.6972027039
熊本武蔵ヶ丘団地郵便局,熊本県,北区,武蔵ケ丘４丁目,32.855285,130.771214,63683.8542589265
熊本麻生田郵便局,熊本県,北区,麻生田３丁目,32.849415,130.743531,69448.6401110745
熊本上立田簡易郵便局,熊本県,北区,龍田陳内３丁目,32.82887,130.753938,72037.7098296769
竜田郵便局,熊本県,北区,龍田７丁目,32.839314,130.761827,69975.1166274372
竜田出村簡易郵便局,熊本県,北区,武蔵ケ丘７丁目,32.852147,130.775936,53282.9004831296
八代旭中央通郵便局,熊本県,八代市,黄金町,32.502629,130.61272,27653.4587384316
八代松高郵便局,熊本県,八代市,永碇町,32.520033,130.594738,28755.1070339652
八代横手郵便局,熊本県,八代市,横手町,32.518644,130.604237,29952.9999457141
竜峰郵便局,熊本県,八代市,岡町谷川,32.529704,130.664611,9424.53398267797
海士江簡易郵便局（一時閉鎖）,熊本県,八代市,海士江町,32.525895,130.624541,24696.5659003589
八代宮地郵便局,熊本県,八代市,宮地町,32.49957409610583,130.63947533640348,13391.5572002211
有佐郵便局,熊本県,八代市,鏡町下有佐,32.563672,130.67201,14445.5055182498
鏡郵便局,熊本県,八代市,鏡町鏡鏡,32.57045,130.655569,13869.6868727429
文政郵便局,熊本県,八代市,鏡町両出外出,32.561229,130.634428,11981.7290217324
郡築郵便局,熊本県,八代市,郡築六番町,32.532683,130.572627,12450.219753644
八代迎町郵便局,熊本県,八代市,迎町２丁目,32.499701,130.598599,24635.9319290989
八代古閑浜町郵便局,熊本県,八代市,古閑浜町,32.540115,130.603514,19012.9900954994
八代港町簡易郵便局,熊本県,八代市,郡築一番町,32.512977,130.568046,14258.1438720661
金剛郵便局,熊本県,八代市,高植本町,32.472231,130.586073,10027.3019627063
鮎帰簡易郵便局,熊本県,八代市,坂本町中谷,32.43276,130.694222,3381.41468041405
坂本郵便局,熊本県,八代市,坂本町坂本,32.436759,130.658046,4472.03761154122
下松求麻簡易郵便局,熊本県,八代市,坂本町西部,32.470039,130.644986,6995.11940455303
上松求麻郵便局,熊本県,八代市,坂本町中津道,32.383632,130.656516,2957.2374837545
百済来郵便局,熊本県,八代市,坂本町田上,32.405767,130.623518,3540.04958974385
八代弥次簡易郵便局,熊本県,八代市,三江湖町,32.486062,130.572462,11158.2257001315
八代植柳郵便局,熊本県,八代市,植柳上町,32.489063,130.603765,23372.619945312
新浜簡易郵便局,熊本県,八代市,新浜町,32.508977,130.581822,22973.2259276268
千丁郵便局,熊本県,八代市,千丁町新牟田,32.533228,130.636152,19239.1922957093
下岳郵便局,熊本県,八代市,泉町下岳,32.567812,130.773557,5266.3335912421
泉郵便局,熊本県,八代市,泉町栗木,32.54702202120019,130.80995555019072,3975.27381600723
五家荘郵便局,熊本県,八代市,泉町椎原,32.49098611681526,130.9062280583476,2388.87416707935
八代築添町簡易郵便局,熊本県,八代市,築添町,32.515532,130.578434,22973.2259276268
八代長田郵便局,熊本県,八代市,長田町,32.509952,130.629335,23262.9050942648
八代通町郵便局,熊本県,八代市,通町,32.5087,130.605987,34872.9001624632
河俣郵便局,熊本県,八代市,東陽町河俣字久木野,32.516067,130.743312,4202.78737609809
東陽郵便局,熊本県,八代市,東陽町南字種山,32.547786,130.715063,6582.67234247977
二見郵便局,熊本県,八代市,二見下大野町,32.406598,130.558524,3960.36072804447
日奈久郵便局,熊本県,八代市,日奈久中西町,32.43279,130.572438,4988.99228788554
八代駅前郵便局,熊本県,八代市,萩原町２丁目,32.503701,130.62118,27653.4587384316
八代大村橋郵便局,熊本県,八代市,毘舎丸町,32.51121445548534,130.61459149151412,29529.671175197
敷川内簡易郵便局,熊本県,八代市,敷川内町,32.454983,130.596796,7154.15457805374
高田郵便局,熊本県,八代市,豊原中町,32.488314,130.617987,18741.5612199393
八代郵便局,熊本県,八代市,松江城町,32.505256,130.59971,30330.751984384
八代本町郵便局,熊本県,八代市,本町４丁目,32.504645,130.59571,30330.751984384
人吉井ノ口簡易郵便局,熊本県,人吉市,上原田町字牛塚,32.247286,130.74571,6253.50994647077
西人吉駅前簡易郵便局,熊本県,人吉市,下原田町字荒毛,32.2288943595889,130.72522831877384,10038.5069198247
下戸越簡易郵便局,熊本県,人吉市,下戸越町,32.206456,130.733601,8360.45038821411
林温泉郵便局,熊本県,人吉市,下林町,32.217761,130.734434,10330.9111574591
人吉城本簡易郵便局,熊本県,人吉市,駒井田町,32.219778,130.758041,15265.8582093876
人吉瓦屋簡易郵便局,熊本県,人吉市,瓦屋町,32.226427,130.75857,12673.2281728096
人吉願成寺郵便局,熊本県,人吉市,上新町,32.219706,130.771736,12279.5849433756
人吉七日町郵便局,熊本県,人吉市,七日町,32.214956,130.765653,16191.1313647004
人吉郵便局,熊本県,人吉市,上青井町,32.213734,130.756099,15378.9764155515
人吉西間簡易郵便局,熊本県,人吉市,西間上町,32.19893,130.762821,9150.42948305094
大畑郵便局,熊本県,人吉市,上漆田町,32.163759,130.804461,3812.4519474012
人吉田町簡易郵便局,熊本県,人吉市,田町,32.206164144165086,130.76565678292334,11578.739449547
人吉新町郵便局,熊本県,人吉市,土手町,32.208431,130.757712,15378.9764155515
東大塚簡易郵便局,熊本県,人吉市,西大塚町,32.1325408093906,130.71639574056064,2444.67939417342
有明簡易郵便局,熊本県,荒尾市,蔵満,32.964021,130.435264,15264.8891950565
荒尾倉掛郵便局,福岡県,大牟田市,臼井町,33.003406,130.457901,29586.5907432277
荒尾金山簡易郵便局,熊本県,荒尾市,金山,32.948154,130.502984,14370.3669846587
荒尾打越郵便局,熊本県,荒尾市,宮内出目,32.981214,130.432002,19551.1580752257
荒尾桜山郵便局,熊本県,荒尾市,桜山町３丁目,32.9652732934757,130.4571552177346,20118.8855467389
荒尾四ツ山郵便局,熊本県,荒尾市,四ツ山町２丁目,33.003497,130.430494,28162.7857780503
荒尾新生郵便局,熊本県,荒尾市,東屋形４丁目,32.97702,130.456818,25634.6105846714
荒尾郵便局,熊本県,荒尾市,大正町２丁目,32.998573,130.434653,26280.687340795
府本郵便局,熊本県,荒尾市,八幡台２丁目,32.96429,130.481318,16809.9142691925
府本宿町簡易郵便局,熊本県,荒尾市,府本,32.975017036701466,130.4962328579138,15478.1026386164
荒尾万田郵便局,熊本県,荒尾市,万田,32.999169,130.440836,28417.9437537911
荒尾緑ヶ丘郵便局,熊本県,荒尾市,緑ヶ丘２丁目,32.986519,130.472289,25861.5641443295
釣橋郵便局,熊本県,水俣市,薄原,32.173038,130.460402,3238.92460869375
水俣丸島郵便局,熊本県,水俣市,丸島町３丁目,32.212143,130.388797,10670.6980987386
久木野郵便局,熊本県,水俣市,久木野,32.1729,130.525896,2458.58373233483
水俣月浦簡易郵便局,熊本県,水俣市,月浦,32.187211,130.381611,5798.98141758131
水俣古城簡易郵便局,熊本県,水俣市,古城３丁目,32.20498498888464,130.42097931877382,8275.80000162787
水俣昭和郵便局,熊本県,水俣市,昭和町２丁目,32.208032,130.397185,11340.8549176924
水俣深川簡易郵便局,熊本県,水俣市,深川,32.18396715833227,130.44387792172012,3872.81636009046
水俣陣内郵便局,熊本県,水俣市,陣内１丁目,32.210893,130.408573,12241.51516563
袋郵便局,熊本県,水俣市,月浦,32.17623,130.383798,6475.85790389709
湯出郵便局,熊本県,水俣市,薄原,32.151762,130.441293,3003.20843338725
水俣白浜簡易郵便局,熊本県,水俣市,八幡町３丁目,32.219337,130.403295,9896.86196564984
水俣百間簡易郵便局,熊本県,水俣市,百間町１丁目,32.202311,130.39113,11340.8549176924
水俣郵便局,熊本県,水俣市,浜町２丁目,32.210782,130.401851,12241.51516563
伊倉郵便局,熊本県,玉名市,宮原,32.90625,130.575673,13582.0902301224
横島郵便局,熊本県,玉名市,横島町横島,32.878474,130.555648,12323.0332078259
滑石郵便局,熊本県,玉名市,滑石,32.90011,130.531067,14270.0583582472
玉名温泉郵便局,熊本県,玉名市,岩崎,32.937331,130.557368,20662.9505872524
月瀬簡易郵便局,熊本県,玉名市,溝上,32.96334328519099,130.58944224115177,10228.9417196082
玉名高瀬郵便局,熊本県,玉名市,高瀬,32.928748,130.561785,21135.3385934814
玉名三ツ川簡易郵便局,熊本県,玉名市,三ツ川,32.988271,130.561313,9269.2037137157
玉名築山郵便局,熊本県,玉名市,中尾,32.935498,130.539035,21216.8251968295
玉名小田簡易郵便局,熊本県,玉名市,上小田,32.95884843521213,130.59558766754384,10228.9417196082
石貫簡易郵便局,熊本県,玉名市,石貫,32.95966670714968,130.56397971056447,11006.1049680362
高道郵便局,熊本県,玉名市,岱明町山下,32.908471,130.517648,15587.8210502114
睦合簡易郵便局,熊本県,玉名市,岱明町庄山,32.933053,130.519731,17716.9453682209
大野下郵便局,熊本県,玉名市,岱明町大野下,32.921113,130.502362,16578.5123266298
鍋郵便局,熊本県,玉名市,岱明町鍋,32.908975,130.495218,13498.1438983834
玉名大倉郵便局,熊本県,玉名市,大倉,32.921166,130.579506,14384.2807456555
大浜末広簡易郵便局,熊本県,玉名市,大浜町,32.874417,130.535013,9515.11250482124
大浜郵便局,熊本県,玉名市,北牟田,32.897305,130.547759,13547.0499127758
玉名郵便局,熊本県,玉名市,中,32.928526,130.549452,23202.2146485299
小天東簡易郵便局,熊本県,玉名市,天水町小天,32.854765,130.610454,11881.3732248768
玉水郵便局,熊本県,玉名市,天水町部田見,32.877198,130.576506,12210.6654372768
天水郵便局,熊本県,玉名市,天水町立花,32.866949,130.590866,12583.9108251577
玉名迫間郵便局,熊本県,玉名市,両迫間,32.938775,130.581755,13572.1247448861
菊鹿郵便局,熊本県,山鹿市,菊鹿町下永野,33.025742,130.7626,8326.04309666633
内田郵便局,熊本県,山鹿市,菊鹿町相良,33.063905,130.773736,6582.03092941792
城北郵便局,熊本県,山鹿市,菊鹿町木野,33.011250972569634,130.77470189303972,9808.29362938659
三玉郵便局,熊本県,山鹿市,久原,33.027574,130.722547,10780.2619376608
熊入温泉郵便局,熊本県,山鹿市,熊入町,33.024796,130.684856,15010.8208583811
山鹿古閑簡易郵便局,熊本県,山鹿市,古閑,33.00826407113446,130.71122021641875,18424.9104789464
山鹿日吉郵便局,熊本県,山鹿市,泉町,33.01788,130.687634,18118.8165711703
山鹿郵便局,熊本県,山鹿市,山鹿,33.013575,130.691384,17508.3269934132
米野岳簡易郵便局,熊本県,山鹿市,鹿央町持松,32.97796133921653,130.68017111603737,10631.6611887334
千田郵便局,熊本県,山鹿市,鹿央町千田,32.973524,130.696856,11247.9399203695
肥後山内郵便局,熊本県,山鹿市,鹿央町北谷,32.956469,130.656749,9975.51514056039
広見郵便局,熊本県,山鹿市,鹿北町四丁,33.084625,130.695714,6975.78261657925
鹿北郵便局,熊本県,山鹿市,鹿北町四丁,33.111122,130.689519,6545.29603587283
岳間郵便局,熊本県,山鹿市,鹿北町椎持,33.107289,130.734821,5763.36566357945
鹿本郵便局,熊本県,山鹿市,鹿本町来民,33.001799,130.736908,14058.6505910477
山鹿栗林簡易郵便局,熊本県,山鹿市,中,33.016714,130.701077,18641.9145965038
三岳郵便局,熊本県,山鹿市,寺島,33.055183,130.689966,8500.76541645228
山鹿鍋田郵便局,熊本県,山鹿市,山鹿,33.016408,130.666441,12345.3144959519
南島郵便局,熊本県,山鹿市,宗方,33.004965,130.68594,14462.9511518389
平小城郵便局,熊本県,山鹿市,小群,33.050903,130.66102,7969.90047656952
旭志郵便局,熊本県,菊池市,伊萩,32.948499,130.855066,8862.46390033647
菊池郵便局,熊本県,菊池市,隈府迎町,32.98033,130.809069,17557.0506076375
水源簡易郵便局,熊本県,菊池市,原原本村,32.999843,130.86673,6415.87420403229
七城郵便局,熊本県,菊池市,甲佐町,32.96940411494292,130.76883645809517,12060.7917643507
台簡易郵便局,熊本県,菊池市,台,32.984207,130.75836,11684.6801419573
清泉簡易郵便局,熊本県,菊池市,林原,32.961192,130.749714,11657.9884095446
立門簡易郵便局,熊本県,菊池市,原立門,33.017298,130.895506,4825.46862006558
花房郵便局,熊本県,菊池市,出田下出田,32.953414,130.793516,13402.06386393
竜門郵便局,熊本県,菊池市,雪野雪野,33.014395,130.834246,7104.67919999002
河原郵便局,熊本県,菊池市,藤田,32.977525,130.825234,12363.0854275218
泗水桜山団地簡易郵便局,熊本県,菊池市,永,32.916307,130.800738,14764.4915575941
吉富簡易郵便局,熊本県,菊池市,吉富,32.9383453048079,130.78492399934214,15636.3708078949
泗水東簡易郵便局,熊本県,菊池市,富納,32.933139,130.809015,14345.4677513537
田島郵便局,熊本県,菊池市,南田島,32.933638,130.745497,12950.1496878775
泗水郵便局,熊本県,菊池市,豊水,32.927639,130.773102,15708.2145078086
宇土郵便局,熊本県,宇土市,浦田町,32.68677,130.659199,22152.0048340974
網田郵便局,熊本県,宇土市,戸口町,32.66797399267607,130.55236011603736,6901.6261713257
花園郵便局,熊本県,宇土市,古保里町,32.676161,130.681392,21355.7484459237
網津郵便局,熊本県,宇土市,住吉町,32.701519,130.595119,9454.07830738607
宇土駅前郵便局,熊本県,宇土市,城之浦町,32.692826,130.666448,20832.8438110514
宇土轟簡易郵便局,熊本県,宇土市,神馬町,32.676355,130.64545,17802.3651910837
長浜簡易郵便局,熊本県,宇土市,長浜町,32.69321200273807,130.56281736245234,7253.54366325628
緑川郵便局,熊本県,宇土市,野鶴町,32.694392,130.631847,13889.043989903
阿村郵便局,熊本県,上天草市,阿村,32.516058,130.446559,5783.95482211026
教良木郵便局,熊本県,上天草市,教良木,32.464775,130.369845,3310.17047434749
松島郵便局,熊本県,上天草市,合津,32.506309,130.427311,5128.89060228841
樋合簡易郵便局,熊本県,上天草市,合津,32.539294,130.403888,4256.33529299703
合津港簡易郵便局,熊本県,上天草市,合津,32.516752,130.427672,5777.99178086518
今泉簡易郵便局,熊本県,上天草市,今泉,32.499584,130.402839,4225.17400100159
内野河内簡易郵便局,熊本県,上天草市,内野河内,32.4662080053194,130.40056237679252,3502.83892653475
維和郵便局,熊本県,上天草市,維和,32.564721,130.464889,5090.03005572551
蔵々簡易郵便局,熊本県,上天草市,維和,32.575387,130.482109,5135.23250717101
賤の女簡易郵便局,熊本県,上天草市,上,32.601233,130.422864,5851.52913776657
串簡易郵便局,熊本県,上天草市,上,32.60796551563818,130.41475786929357,5851.52913776657
江樋戸郵便局,熊本県,上天草市,上,32.582164,130.41492,6546.58007241794
野釜簡易郵便局,熊本県,上天草市,上,32.582747,130.389339,4717.99900377241
柳郵便局,熊本県,上天草市,中,32.55325291216773,130.437231087357,5706.77218859208
江後簡易郵便局,熊本県,上天草市,中,32.56617897378167,130.4089210580187,4686.16125626448
大潟簡易郵便局,熊本県,上天草市,維和,32.585886,130.453194,6259.30372267467
大矢野郵便局,熊本県,上天草市,登立,32.59111976994876,130.4325318983028,7733.99949702278
湯島郵便局,熊本県,上天草市,湯島,32.601051,130.336703,3495.08989203796
二間戸郵便局,熊本県,上天草市,二間戸,32.426081046099135,130.40197624575706,4018.91232606502
姫戸郵便局,熊本県,上天草市,姫浦,32.4397023250869,130.4097111303776,4045.80503121889
牟田簡易郵便局,熊本県,上天草市,姫浦,32.470633971206375,130.4348812607551,3384.78324147263
龍ヶ岳郵便局,熊本県,上天草市,高戸,32.400096,130.400289,3801.00760371163
大道郵便局,熊本県,天草市,横浦字杉浦,32.381099,130.35421,3561.19091380031
樋島郵便局,熊本県,上天草市,樋島,32.394013,130.412233,4300.55115867681
郡浦郵便局,熊本県,宇城市,郡浦,32.623803,130.5331,5581.94530534171
戸馳郵便局,熊本県,宇城市,戸馳,32.600831,130.496161,6246.226617668
三角郵便局,熊本県,宇城市,三角浦,32.610024,130.474691,6037.62429872506
三角西郵便局,熊本県,宇城市,三角浦,32.623355,130.455303,5638.29283425763
大岳郵便局,熊本県,宇城市,手場,32.625552,130.556263,6058.89490639307
塩屋簡易郵便局,熊本県,宇城市,波多,32.616162,130.48905,6274.43573976247
海東郵便局,熊本県,宇城市,西海東,32.57906,130.736504,7798.63644069662
小川郵便局,熊本県,宇城市,小川,32.586205,130.707822,11723.8107316272
小川駅前郵便局,熊本県,宇城市,江頭,32.598946,130.6967,12771.4898286245
小野部田簡易郵便局,熊本県,宇城市,南小野,32.604807,130.72017,10840.385414416
当尾郵便局,熊本県,宇城市,大野,32.651691,130.687837,20609.8214859577
松橋郵便局,熊本県,宇城市,松橋,32.652191,130.675671,21483.2976961077
豊川郵便局,熊本県,宇城市,南豊崎,32.625248,130.677533,14877.2574044475
豊福郵便局,熊本県,宇城市,両仲間,32.632748,130.700225,14336.3193922765
亀尾郵便局,熊本県,宇城市,亀松,32.64532197622806,130.6590954211289,14590.6216554996
不知火御領簡易郵便局,熊本県,宇城市,柏原,32.661834,130.671881,22465.9566286171
松合郵便局,熊本県,宇城市,松合,32.630997,130.609009,6946.71855796947
豊野郵便局,熊本県,宇城市,糸石,32.641804,130.747611,9886.90446193935
一の宮郵便局,熊本県,阿蘇市,西町,32.94049197344731,131.11774169556637,7788.61655397274
坂梨郵便局,熊本県,阿蘇市,一の宮町坂梨,32.937949,131.132322,6237.333061792
古城郵便局,熊本県,阿蘇市,一の宮町三野,32.971002,131.131294,4472.66220056881
内牧駅前郵便局,熊本県,阿蘇市,黒川下西黒川,32.943059,131.043245,5736.52394471983
坊中郵便局,熊本県,阿蘇市,黒川坊中,32.935088,131.080019,6652.16575108715
